name,latitude,longitude,admin1_code,admin2_code,admin3_code,feature_code
Zuvvaladinne,14.80796,80.07045,02,550,5159,PPL
Zulakallu,16.44415,79.78743,02,751,5047,PPL
Zangareddigudem,17.12288,81.29525,02,748,4953,PPL
Zaladanki,14.88431,79.91251,02,550,5157,PPL
Zahirabad,17.68138,77.60743,40,691,4474,PPL
Yerur,14.17677,80.04152,02,752,5190,PPL
Yerupalem,16.82211,80.47017,40,541,4767,PPL
Yellareddi,18.19433,78.01777,40,685,4386,PPL
Yellandu,17.59064,80.32146,40,690,4740,PPL
Yelkaturti,18.10148,79.44948,40,686,4449,PPL
Yeljal,16.81897,78.36249,40,537,4562,PPL
Yelgonda,18.89573,79.05762,40,681,6213,PPL
Yelatturdibba,15.78086,80.87351,02,547,5038,PPL
Yedapalli,18.68006,77.94741,40,533,4369,PPL
Yarada,17.65872,83.27419,02,544,4869,PPL
Yanam,16.73308,82.21364,02,545,,PPL
Yamanpalli,19.10064,79.84471,40,684,4330,PPL
Yadiki,15.04941,77.87306,02,553,5312,PPL
Yadgarpalli,16.83333,79.58333,40,539,4664,PPL
Wynchpet,16.52372,80.61692,02,749,5010,PPLX
Wazirabad,16.69169,79.66073,40,539,4663,PPL
Wasalmari,17.67252,78.81079,40,697,4614,PPL
Warangal,18.0,79.58333,40,686,4695,PPLA2
Wanparti,16.36738,78.06889,40,693,4595,PPLA2
Waltair,17.71685,83.31924,02,544,4866,PPL
Wakri,19.48346,79.32051,40,699,4314,PPL
Vyaparla,16.04148,78.05045,40,693,4602,PPL
Vuyyuru,16.36307,80.84406,02,547,5027,PPL
Vizianagaram,18.11692,83.41148,02,543,4836,PPLA2
Vissannapeta,16.94125,80.78576,02,749,5000,PPL
Visnur,17.62983,79.40511,40,689,4697,PPL
Visakhapatnam,17.68009,83.20161,02,544,4869,PPLA2
Viravalli,16.61211,80.91818,02,547,5004,PPL
Virapalle,14.15802,78.85761,02,753,5242,PPL
Virampalli,14.28535,79.81283,02,550,5183,PPL
Viraghattam,18.68644,83.60919,02,743,4769,PPL
Vinukonda,16.0531,79.73964,02,751,5062,PPL
Vinnadivaram,16.01797,79.56051,02,549,5099,PPL
Vinjamur,14.83364,79.57985,02,550,5161,PPL
Vindur,14.189,79.82577,02,752,5184,PPL
Vikarabad,17.3381,77.90441,40,698,4530,PPLA2
Vijayawada,16.50745,80.6466,02,749,5010,PPL
Vijayarayi,16.80941,81.0384,02,748,4964,PPL
Vijilapuram,12.83425,78.46369,02,554,5428,PPL
Vidapanakallu,15.05731,77.18251,02,553,5308,PPL
Vetapalem,15.78502,80.30663,02,750,5124,PPL
Vepagunta,17.77844,83.21577,02,544,4862,PPL
Venkatapuram,18.30205,80.55089,40,780,4724,PPL
Venkatapuram,17.51063,82.62857,02,744,4874,PPL
Venkatapuram,17.25134,78.24583,40,537,4528,PPL
Venkatagirikota,13.0018,78.48478,02,554,5424,PPL
Venkatagiri,13.96005,79.58032,02,752,5187,PPL
Venkatagiri,13.19444,78.90081,02,554,5429,PPL
Venkatachelam Chattram,14.32674,79.92498,02,550,5182,PPL
Vengannapalem,17.40484,80.50591,40,690,4746,PPL
Venadu,13.64101,80.13014,02,752,5198,PPL
Vemulachedu,14.12565,79.67207,02,550,5185,PPL
Vempalle,14.36729,78.4587,02,551,5233,PPL
Vemalwada,18.46523,78.86894,40,683,4430,PPL
Velugodu,15.71932,78.57296,02,755,5282,PPL
Veludurti,16.34929,79.36669,02,751,5041,PPL
Vellaturu,14.45071,78.65972,02,551,5232,PPL
Vellanti,14.4807,79.82234,02,550,5177,PPL
Veldurti,15.54993,77.93112,02,552,5278,PPL
Velchal,18.41667,79.61667,40,687,6248,PPL
Velampalle,15.63938,80.01343,02,549,5127,PPL
Vedullacheruvu,15.31393,79.23185,02,549,5135,PPL
Vedichela,14.09243,79.76272,02,752,5184,PPL
Vayalpad,13.63732,78.62991,02,753,5388,PPL
Vatturupallepalem,14.85099,80.08434,02,550,5158,PPL
Variguntapadu,14.99029,79.42043,02,550,5155,PPL
Vardannapet,17.77251,79.56951,40,540,4704,PPL
Vardamankot,17.37756,79.44149,40,696,6298,PPL
Varakuru,15.68476,78.17797,02,552,5268,PPL
Varadayyapalaiyam,13.59858,79.93276,02,752,5381,PPL
Vanipenta,14.79055,78.78047,02,551,5204,PPL
Valigonda,17.37615,79.02131,40,697,4627,PPL
Valassala,15.38333,77.98333,02,755,5289,PPL
Valasarapalli,14.45585,79.76675,02,550,5176,PPL
Valasala,15.38863,77.97093,02,755,5289,PPL
Valaparla,15.92406,80.04919,02,750,5106,PPL
Valamuru,17.62566,81.63834,02,745,4884,PPL
Vakalapudi,17.01667,82.28333,02,746,4913,PPL
Wajrakarur,15.02719,77.38657,02,553,5316,PPL
Vaimsur,17.12906,80.7926,40,541,4768,PPL
Vadlapudi,14.31119,79.8043,02,550,5183,PPL
Vaddepa,17.74536,82.61786,02,744,4855,PPL
Vaddadi,17.84737,82.87293,02,744,4873,PPL
Vadarevu,15.79728,80.41176,02,750,5123,PPL
Vadamala,13.54886,79.52423,02,752,5399,PPL
Uyyalavada,15.63142,78.07537,02,552,5268,PPL
Uyyalavada,15.10168,78.39608,02,755,5302,PPL
Vutukuru,14.57777,80.14227,02,550,5168,PPL
Utukuru,14.25,79.75,02,550,5185,PPL
Uttukuru,14.56667,80.15,02,550,5179,PPL
Uttaravilli,18.45847,83.47696,02,543,4822,PPL
Uchapalem,14.36285,79.67062,02,550,5176,PPL
Utnur,19.36798,78.77608,40,532,4321,PPL
Utkur,16.65029,77.51496,40,781,4571,PPL
Ustikoilpenta,13.83463,79.03316,02,752,5374,PPL
Uravakonda,14.94348,77.25494,02,553,5317,PPL
Upputuru,14.42357,79.792,02,550,5177,PPL
Uppugunduru,15.67009,80.16879,02,549,5126,PPL
Uppalapadu,15.88725,79.91156,02,750,5112,PPL
Uppalapadu,15.58267,79.7567,02,549,5120,PPL
Uppalapadu,15.17039,78.044,02,755,5295,PPL
Uppalaguptam,16.55326,82.09749,02,747,4942,PPL
Uppal,18.17947,79.476,40,686,4447,PPL
Uppal,15.97433,77.67982,40,695,4606,PPL
Uppada,17.08333,82.33333,02,746,4912,PPL
Uppal Kalan,17.40577,78.55911,40,700,6318,PPL
Undial,16.43499,77.75707,40,538,4587,PPL
Undi,16.58542,81.46211,02,546,4976,PPL
Undavalli,16.49566,80.58574,02,548,5054,PPL
Umri,19.51667,78.9,40,532,4312,PPL
Ullapalem,15.23697,80.0712,02,549,5149,PPL
Ullah,19.18126,78.06904,40,680,4337,PPL
Ulindakonda,15.64509,77.97152,02,552,5258,PPL
Ulavapad,15.1665,79.99599,02,550,5152,PPL
Udayagiri,14.87538,79.30861,02,550,5154,PPL
Udampur,19.20876,78.87626,40,680,4335,PPL
Udakatla,16.5,77.95,40,538,4586,PPL
Turpupundla,14.19075,79.7845,02,550,5185,PPL
Turimerla,14.27568,79.73911,02,550,5185,PPL
Tupran,17.84635,78.4788,40,535,4482,PPL
Tunkapalem,14.31136,79.83028,02,550,5182,PPL
Tuni,17.35905,82.54607,02,746,4890,PPL
Tungaturti,17.41151,79.58874,40,696,4620,PPL
Tumuluru,16.26999,80.75136,02,548,5077,PPL
Tummurukota,16.55804,79.45814,02,751,5043,PPL
Tummalatalupur,14.2957,79.69682,02,550,5185,PPL
Tummalapenta,14.89974,80.0687,02,550,5158,PPL
Tumbagarh,19.02228,84.45606,02,,,PPL
Tuggali,15.31379,77.54503,02,552,5293,PPL
Tsundupalle,13.98092,78.9152,02,753,5238,PPL
Tsandavolu,16.00752,80.61218,02,750,5091,PPL
Tsadumu,13.66385,78.0998,02,753,5390,PPL
Tsadum,13.5479,78.90752,02,554,5394,PPL
Tripurantakam,15.99962,79.45674,02,549,5099,PPL
Trimulgherry,17.479,78.514,40,536,4499,PPL
Totapalliguduru,14.38915,80.08322,02,550,5180,PPL
Totakurapalem,17.68908,82.80712,02,744,4873,PPL
Tonduru,14.57544,78.28102,02,551,5221,PPL
Tondangi,17.24751,82.47819,02,746,4901,PPL
Tokapalle,15.88392,79.28578,02,549,5101,PPL
Tokalapudi,14.16116,79.68357,02,550,5185,PPL
Togarakunta,14.4895,77.46007,02,754,5335,PPL
Toderu,14.41177,79.76568,02,550,5176,PPL
Tocham,19.52876,78.56439,40,532,4310,PPL
Tiruvur,18.1,80.63333,40,690,4725,PPL
Tirupati,13.63551,79.41989,02,752,5383,PPL
Tirumala,13.68333,79.35,02,752,5383,PPL
Tirmalgiri,17.47385,79.43538,40,696,4619,PPL
Tippireddipalli,14.17059,79.70242,02,550,5185,PPL
Tippavarapadu,14.16174,79.77841,02,752,5184,PPL
Tipparti,17.01645,79.41274,40,539,4645,PPL
Tipanuru,14.09145,79.8555,02,752,5190,PPL
Timmasamudram,13.63993,79.7315,02,752,5382,PPL
Timmareddipalle,15.47831,79.36833,02,549,5130,PPL
Timmaraipet,17.37417,80.36675,40,541,4753,PPL
Timmapuram,17.38333,82.03333,02,745,4887,PPL
Timmapur,18.11501,78.72359,40,692,4458,PPL
Timmanayudupeta,14.70828,79.21711,02,550,5163,PPL
Timmanayanipeta,15.0203,78.15946,02,755,5301,PPL
Timajipet,16.66722,78.18982,40,694,4575,PPL
Tilaru,18.47869,84.0775,02,542,4791,PPL
Tilani,19.17388,79.27245,40,699,4333,PPL
Tiladru,17.2,80.41667,40,541,4762,PPL
Tikkavadipalem,17.73333,83.28333,02,544,4866,PPL
Thulipalem,14.75256,80.10719,02,550,5167,PPL
Tettu,15.05153,80.00375,02,550,5151,PPL
Thenali,16.24253,80.63982,02,548,5078,PPLA3
Temburu,18.63066,84.12898,02,542,4773,PPL
Telkapalli,16.44294,78.45724,40,694,4581,PPL
Tekmal,17.97281,78.03659,40,535,4469,PPL
Tekkali,18.6057,84.23546,02,542,4789,PPL
Tegada,18.03758,80.84011,40,690,4726,PPL
Tayyuru,13.29954,79.30802,02,554,5419,PPL
Tatiparti,14.51611,79.76661,02,550,5176,PPL
Taticherla,15.38343,79.04536,02,549,5134,PPL
Tarlupadu,15.65708,79.22379,02,549,5118,PPL
Tarlakota,18.8031,84.40278,02,542,4775,PPL
Tarigonda,13.69318,78.62834,02,753,5370,PPL
Taragupal,17.93954,79.17544,40,689,6257,PPL
Tanuku,16.75438,81.68143,02,546,4972,PPL
Tanisahippeta,18.33333,84.11667,02,542,4801,PPL
Tanguturu,15.33921,80.04006,02,549,5141,PPL
Tangeda,16.66736,79.81714,02,751,5045,PPL
Tanguturu,14.29537,79.22216,02,753,5243,PPL
Tandur,19.15183,79.45024,40,684,4332,PPL
Tandur,17.24849,77.57698,40,698,4534,PPL
Tanakallu,13.92002,78.19493,02,754,5360,PPL
Tamsi,19.6874,78.42384,40,532,4305,PPL
Tammenapatam,14.23272,80.1023,02,752,5190,PPL
Tamballapalle,13.82204,78.45174,02,753,5368,PPL
Talupula,14.24148,78.25848,02,754,5340,PPL
Tallapalem,17.63342,82.89038,02,744,4876,PPL
Talamanchipatnam,14.94492,78.31144,02,551,5200,PPL
Talagadadivi,15.91725,80.93067,02,547,5038,PPL
Tadpatri,14.90832,78.01031,02,553,5313,PPL
Tadivaripalle,15.59336,79.27886,02,549,5118,PPL
Tadimarri,14.56222,77.85895,02,754,5338,PPL
Tadikonda,16.41837,80.45485,02,548,5056,PPL
Tadikalapudi,16.89974,81.17536,02,748,4954,PPL
Tadikal,18.31312,79.29184,40,534,4441,PPL
Tadepalligudem,16.81467,81.52717,02,546,4961,PPL
Tadepalle,16.48333,80.6,02,548,5054,PPL
Tadcharla,18.54023,79.73307,40,687,4405,PPL
Tada,13.58593,80.0315,02,752,5198,PPL
Suryalanka,15.84752,80.52724,02,750,5093,PPL
Sururnagar,17.35611,78.53333,40,537,6323,PPL
Suriapet,17.14054,79.62045,40,696,4638,PPLA2
Suriapalem,16.54914,80.56248,02,749,5011,PPL
Suredu,18.16879,80.69849,40,780,4724,PPL
Surareddipalem,15.41211,80.04943,02,549,5141,PPL
Suntadasupalli,14.21968,79.82489,02,752,5184,PPL
Sunkarimetta,18.27294,82.96581,02,745,4844,PPL
Sunigram,18.19424,79.01667,40,692,4443,PPL
Sundi Penta,16.07625,78.907,02,755,6538,PPL
Suluru,13.7,80.01667,02,752,5197,PPL
Sugur,16.14059,77.98748,40,693,4602,PPL
Srungavarapukota,18.11084,83.13996,02,543,4831,PPL
Srisailain,16.07217,78.86816,02,755,6538,PPL
Srirangapur,16.19163,78.05,40,693,6288,PPL
Sriramnagar,17.26652,78.25544,40,537,4528,PPL
Sriramagiri,17.52752,81.29474,40,541,,PPL
Srikurmam,18.27085,84.00442,02,542,4801,PPL
Srikakulam,18.2989,83.89751,02,542,4802,PPL
Srikakulam,16.19645,80.84671,02,547,5033,PPL
Srigiripadu,16.30549,79.32777,02,751,5041,PPL
Son,19.01057,78.38468,40,680,6209,PPL
Sompeta,18.94419,84.58449,02,542,4780,PPL
Somidevipalle,15.45718,79.03842,02,549,5132,PPL
Somavaram,17.22708,82.11812,02,746,4899,PPL
Somaram,18.99187,79.71651,40,684,4351,PPL
Somala,13.47476,78.81007,02,554,5412,PPL
Soanpeta,18.96995,78.35627,40,533,6237,PPL
Siwampet,17.78848,78.37035,40,535,4487,PPL
Sivarampuram,18.53545,83.24321,02,743,4817,PPL
Shivannaguda,17.00494,78.88565,40,539,4649,PPL
Sivajipalem,17.73333,83.33333,02,544,4866,PPL
Sitarampuram,15.01587,79.13674,02,550,5153,PPL
Sitaramapuram,14.71963,78.66667,02,551,5213,PPL
Sitanagaram,18.65584,83.3771,02,743,4814,PPL
Sitanagaram,17.19935,80.9611,40,541,,PPL
Sitanagaram,17.18333,81.7,02,545,4896,PPL
Sitanagaram,16.49332,80.61096,02,548,5054,PPL
Sitammapeta,17.73333,83.31667,02,544,4866,PPL
Sirvel,15.32102,78.53439,02,755,5286,PPL
Sirsilla,18.38865,78.81048,40,683,4435,PPLA2
Sirsa,18.9347,79.94085,40,684,4351,PPL
Sirpuram,18.48333,80.56667,40,780,4723,PPL
Sirpur,19.47953,79.57558,40,699,4315,PPL
Sirisadu,18.29127,79.54156,40,534,6234,PPL
Singareni,17.5,80.26667,40,541,4744,PPL
Singarayakonda,15.23046,80.02794,02,549,5149,PPL
Singanamala,14.80031,77.71876,02,553,5325,PPL
Simhagadda,18.59252,83.02453,02,743,4817,PPL
Simhadripuram,14.62991,78.12797,02,551,5217,PPL
Simhachalam,17.76675,83.24986,02,544,4866,PPL
Sileru,18.04802,82.03444,02,745,4850,PPL
Sigadam,18.37869,83.68175,02,542,4797,PPL
Siddipet,18.10483,78.84858,40,692,4459,PPLA2
Siddhavattam,14.46795,78.96948,02,551,5229,PPL
Siddeswaram,16.03365,78.32926,02,755,5263,PPL
Shankrampet,18.04931,77.91418,40,535,4454,PPL
Shankarpalli,17.45229,78.131,40,537,4515,PPL
Shakapur,16.54647,77.95296,40,538,4586,PPL
Shahpur,17.79596,79.22882,40,689,4698,PPL
Shahabad,17.16242,78.13232,40,537,4542,PPL
Setturu,14.44801,76.98224,02,553,5332,PPL
Settigunta,13.85398,79.39776,02,753,5249,PPL
Seripalle,16.00029,78.06625,40,695,6299,PPL
Cherigudam,17.42303,78.06046,40,698,4514,PPL
Secunderabad,17.50427,78.54263,40,700,4521,PPL
Satyavedu,13.43661,79.95774,02,752,5402,PPL
Sattenapalle,16.39381,80.15221,02,751,5058,PPL
Sattavada,17.7064,81.68839,02,745,4884,PPL
Sasnur,16.1136,77.94147,40,695,4607,PPL
Sarvakota,18.59214,84.05307,02,542,4788,PPL
Saruvapuram,18.1257,80.06929,40,780,4689,PPL
Sarjakhanpet,17.0182,77.73665,40,781,4551,PPL
Santajuturu,15.62619,78.53379,02,755,5283,PPL
Sankarayalapeta,13.22367,78.61258,02,554,5416,PPL
Sanjemula,15.14741,78.29926,02,755,5300,PPL
Sangareddi,17.62477,78.08669,40,691,4492,PPLA2
Sangam,14.58508,79.7462,02,550,5171,PPL
Sandrapodu,15.32189,78.77955,02,549,5133,PPL
Sanagalaguduru,14.81381,78.0403,02,553,5326,PPL
Samalkot,17.05675,82.17639,02,746,4910,PPL
Salur,18.51716,83.20548,02,743,4817,PPL
Salorah,18.69012,77.8242,40,533,4370,PPL
Salbaka,18.40521,80.37164,40,780,4685,PPL
Salabatpur,17.8487,78.17663,40,535,4480,PPL
Saidapuram,14.1774,79.74277,02,550,5185,PPL
Sadasivpet,17.61925,77.95263,40,691,4490,PPL
Sabbavaram,17.79202,83.12691,02,744,4861,PPL
Rudrur,18.58369,77.87931,40,533,6240,PPL
Rudravaram,15.24257,78.60432,02,755,5297,PPL
Rudrangi,18.62575,78.70198,40,683,6219,PPL
Rudrajupalle,17.26375,80.84713,40,541,4751,PPL
Rudakota,18.29351,82.45949,02,745,4842,PPL
Rollapenta,15.88419,78.82422,02,549,5100,PPL
Rolla,13.84152,77.10095,02,754,5353,PPL
Roddam,14.094,77.42787,02,754,5349,PPL
Rettapalli,14.08807,79.87916,02,752,5190,PPL
Repalle,16.0184,80.82958,02,750,5096,PPL
Rentachintala,16.55236,79.55325,02,751,5043,PPL
Renigunta,13.65143,79.51256,02,752,5376,PPL
Remidicherla,16.28102,79.65007,02,751,5061,PPL
Relangi,16.71667,81.66667,02,546,4972,PPL
Regod,17.97887,77.85202,40,535,4471,PPL
Regadipalle,14.81217,78.14669,02,551,5199,PPL
Regadiguduru,15.71325,78.47832,02,755,5282,PPL
Reddivaripalle,14.26749,78.19881,02,754,5340,PPL
Reddipalli,14.08972,79.22901,02,753,5247,PPL
Razole,16.47608,81.83912,02,747,4937,PPL
Razam,18.44909,83.65957,02,543,4796,PPL
Rayavaram,15.71695,79.31242,02,549,5115,PPL
Rayapalli,17.47219,79.11615,40,697,4626,PPL
Rayanapadu,16.57367,80.56864,02,749,5011,PPL
Rayalapeta,13.32986,78.72509,02,554,5416,PPL
Rayalacheruvu,15.05254,77.81756,02,553,5312,PPL
Rayadrug,14.69971,76.85241,02,553,5305,PPL
Rayachoti,14.05723,78.75056,02,753,5239,PPL
Ravutulapudi,17.37643,82.37134,02,746,4891,PPL
Ratti,18.81815,84.54425,02,542,4776,PPL
Rasapudipalem,17.73308,83.31622,02,544,4866,PPL
Rapur,14.20216,79.53521,02,550,5175,PPL
Rangapuram,15.40923,78.07459,02,755,5279,PPL
Bangampet,17.94787,78.11643,40,535,4468,PPL
Rampur,18.4548,80.00431,40,687,4682,PPL
Gundrampalli,17.23448,78.98604,40,539,4633,PPL
Ramgundam,18.80084,79.45206,40,682,6214,PPL
Ramayapatnam,15.04677,80.04431,02,550,5151,PPL
Ramayampet,18.11726,78.43548,40,535,4457,PPL
Ramavaram,17.67976,81.95694,02,745,4886,PPL
Ramasamudram,13.36664,78.42438,02,753,5414,PPL
Ramasagar,17.89825,78.61834,40,692,6283,PPL
Ramapuram,15.28749,77.86722,02,755,5294,PPL
Ramapuram,13.10091,79.1841,02,554,5431,PPL
Ramanapeta,17.28941,79.09417,40,697,4632,PPL
Ramanakkapeta,16.88545,80.87344,02,748,5002,PPL
Ramallakota,15.57105,78.00165,02,552,5278,PPL
Ramakuppam,12.90013,78.4857,02,554,5428,PPL
Ramagiri,14.3055,77.497,02,754,5348,PPL
Ramachandrapuram,16.83636,82.02871,02,747,4924,PPL
Ramabhadrapuram,18.49682,83.27849,02,543,4819,PPL
Rajupalem,14.21872,79.70217,02,550,5185,PPL
Razupalem,14.1138,79.73219,02,752,5184,PPL
Rajawaram,16.70884,79.41562,40,539,6306,PPL
Rajavolu,15.89098,77.82634,40,695,6296,PPL
Rajapur,19.04317,84.66852,02,542,4779,PPL
Rajanagaram,17.08333,81.9,02,545,4908,PPL
Razampeta,14.19544,79.15896,02,753,5246,PPL
Rajamahendravaram,17.00517,81.77784,02,545,4906,PPL
Raipol,17.93661,78.6291,40,692,6283,PPL
Raipatnam,18.8924,79.14264,40,681,4397,PPL
Raikod,17.83835,77.74655,40,691,4472,PPL
Raikal,18.90347,78.80527,40,681,4395,PPL
Raigir,17.53512,78.9385,40,697,4628,PPL
Rahimanpuram,15.4041,78.05136,02,755,5279,PPL
Raghunathpalli,17.75394,79.25812,40,689,4698,PPL
Racherla,15.46298,78.96587,02,549,5132,PPL
Rachaveli,14.94723,78.5067,02,755,5303,PPL
Pyapali,15.23318,77.74232,02,755,5294,PPL
Puttur,13.44189,79.55314,02,752,5407,PPL
Putluru,14.80984,77.96572,02,553,5326,PPL
Putalapattu,13.34624,79.09351,02,554,5410,PPL
Punganuru,13.36672,78.57186,02,554,5415,PPL
Pundi,18.66093,84.3631,02,542,4781,PPL
Pullampet,14.1242,79.20831,02,753,5247,PPL
Pullalacheruvu,16.15853,79.4312,02,549,5098,PPL
Pulivendla,14.42139,78.22502,02,551,5219,PPL
Pulinjerikuppam,13.60851,80.24421,02,752,5198,PPL
Pudimadaka,17.49825,83.00498,02,744,4878,PPL
Proddatur,14.7502,78.54813,02,551,5214,PPL
Priya,18.42347,84.141,02,542,4800,PPL
Pratur,16.46644,80.63734,02,548,5054,PPL
Prattipadu,17.22982,82.19378,02,746,4900,PPL
Prattipadu,16.18196,80.33444,02,548,5081,PPL
Pratakota,15.95,78.38333,02,755,5261,PPL
Prakkilanka,17.13333,81.66667,02,545,4896,PPL
Prabhagiripatnam,14.45736,79.74819,02,550,5176,PPL
Prabhagiripatnam,14.45,79.23333,02,753,5244,PPL
Potkapalli,18.42309,79.46648,40,682,4426,PPL
Potemshetpalli,17.98011,78.20133,40,535,4468,PPL
Potakamuru,15.74205,79.7716,02,549,5114,PPL
Porumamilla,15.00901,78.98918,02,551,5208,PPL
Ponnuru,16.06547,80.55203,02,548,5084,PPL
Ponnaluru,15.2725,79.79921,02,549,5143,PPL
Pongode,16.92464,79.73427,40,696,4666,PPL
Ponduru,15.41653,79.92643,02,549,5141,PPL
Polukallu,15.82839,77.74313,02,552,5256,PPL
Polluru,17.86257,81.65181,02,,,PPL
Polavaram,17.24754,81.64372,02,748,4949,PPL
Polatala,14.3727,78.68026,02,551,5232,PPL
Polaki,18.37215,84.10272,02,542,4800,PPL
Polakampad,16.48729,80.59978,02,548,5054,PPL
Poladpur,17.98333,83.46667,02,543,4840,PPL
Pokuru,15.17262,79.82246,02,550,5147,PPL
Pokkandala,14.23176,79.74844,02,550,5185,PPL
Pogullapalle,17.54583,80.87531,40,690,4748,PPL
Podur,16.15232,77.82452,40,695,4603,PPL
Podili,15.60639,79.61489,02,549,5120,PPL
Podalakur,14.38481,79.73366,02,550,5176,PPL
Pochannapet,17.75244,79.03552,40,689,4674,PPL
Pochampalli,18.35,78.83333,40,683,6217,PPL
Pitlapur,18.38047,77.67701,40,685,4374,PPL
Pitlam,18.22257,77.82386,40,685,4384,PPL
Pithapuram,17.1168,82.25284,02,746,4911,PPL
Pippara,16.71667,81.55,02,748,4974,PPL
Pimpalgaon,18.96667,77.96667,40,680,4341,PPL
Pillutla,16.539,79.90435,02,751,5048,PPL
Pileru,13.65584,78.93854,02,753,5386,PPL
Piduguralla,16.47926,79.88632,02,751,5047,PPL
Phirangipuram,16.29078,80.26233,02,548,5072,PPL
Petmanhalli,17.76878,77.50564,02,,,PPL
Peruru,14.35031,77.34969,02,754,5348,PPL
Perur,18.02551,78.21708,40,535,4456,PPL
Penumur,13.37025,79.19631,02,554,5409,PPL
Penumaka,16.48402,80.57719,02,548,5054,PPL
Penukonda,14.08286,77.59473,02,754,5356,PPL
Penuguduru,16.91667,82.2,02,746,4922,PPL
Penugonda,16.65363,81.7455,02,546,4980,PPL
Penuganchiprolu,16.90324,80.24625,02,749,4992,PPL
Pentakota,17.30094,82.61124,02,744,4881,PPL
Pennalurupet,13.3084,79.85515,02,602,,PPL
Pendurti,17.82781,83.20215,02,544,4862,PPL
Penchupadu,13.47466,78.45688,02,753,5392,PPL
Penagaluru,14.30611,79.2623,02,753,5244,PPL
Pembi,19.19554,78.63749,40,680,6206,PPL
Pellakuru,13.83025,79.81032,02,752,5195,PPL
Pedduru,12.80704,78.56672,02,554,5428,PPL
Pedda Waltair,17.73378,83.33225,02,544,4866,PPL
Peddavullagallu,15.80428,79.76083,02,549,5113,PPL
Peddavalasa,17.78211,82.27075,02,745,4850,PPL
Peddatippasamudram,13.71295,78.20755,02,753,5390,PPL
Pedda Sana,18.58054,84.18089,02,542,4789,PPL
Peddareddipet,17.77244,77.95271,40,691,4478,PPL
Peddapuram,17.07701,82.13836,02,746,4903,PPL
Peddapur,17.89884,77.98065,40,535,4470,PPL
Peddapudi,16.96667,82.16667,02,746,4915,PPL
Peddapavani,15.00858,79.81153,02,550,5150,PPL
Peddapatnam,16.28562,81.27298,02,547,5034,PPL
Peddapasupula,14.88072,78.44638,02,551,5201,PPL
Peddapariya,14.02963,79.87292,02,752,5189,PPL
Peddapalli,18.61357,79.37442,40,682,4408,PPLA2
Peddapalli,16.37475,78.40404,40,694,4581,PPL
Pedda Palipeta,18.35,84.13333,02,542,4800,PPL
Peddapadu,16.6392,81.03691,02,748,4965,PPL
Pedda Munugal,17.16822,80.29613,40,541,4761,PPL
Pedda Mungal,16.6,79.1,40,539,4658,PPL
Peddamudiyam,15.01154,78.45144,02,551,5201,PPL
Peddamallepalle,14.72699,78.05658,02,553,5327,PPL
Peddamal,17.33877,77.66156,40,698,4533,PPL
Pedda Machchilisam,18.33271,84.12149,02,542,4801,PPL
Peddakurapadu,16.47101,80.25675,02,751,5057,PPL
Pedda Irlapadu,15.20122,79.58773,02,549,5144,PPL
Pedda Ganjam,15.64428,80.22992,02,750,5125,PPL
Pedda Dokulapadu,18.72046,84.45929,02,542,4781,PPL
Peddacheruvu,15.97038,78.83821,02,755,6538,PPL
Peddachappalle,14.55296,78.62724,02,551,5224,PPL
Peddachama,15.9358,78.92954,02,549,5100,PPL
Pedda Bellala,19.07845,78.80998,40,680,4335,PPL
Peddaballe,13.98624,78.39306,02,754,5341,PPL
Pedda Arikatla,15.52249,79.52689,02,549,5119,PPL
Peddaravidu,15.81306,79.2208,02,549,5101,PPL
Peddaalavalapadu,15.32806,79.62475,02,549,5144,PPL
Pedda Ahobilam,15.12449,78.73502,02,755,5298,PPL
Pedana,16.25582,81.14378,02,547,5030,PPL
Pebberu,16.20737,77.99295,40,693,4602,PPL
Payikapuram,16.54818,80.6492,02,749,5010,PPLX
Payalakunta,14.87716,79.01881,02,551,5209,PPL
Pattikonda,15.39501,77.5043,02,552,5290,PPL
Pattikonda,13.18322,78.63918,02,554,5417,PPL
Pattangi,18.92028,84.48999,02,542,4776,PPL
Patrapur,19.13198,84.57036,02,,,PPL
Patnam,14.23453,78.09523,02,754,5343,PPL
Patlur,17.58542,77.79303,40,698,4512,PPL
Pata Polavaram,17.39798,82.81857,02,744,4882,PPL
Patapatnam,18.74888,84.08891,02,542,4773,PPL
Patapalem,16.27276,77.60795,40,695,4591,PPL
Patancheru,17.53334,78.2645,40,691,4494,PPL
Patamatalanka,16.49283,80.65403,02,547,5024,PPLX
Patamata,16.49327,80.66123,02,749,5010,PPLX
Patakottacheruvu,15.1592,77.51104,02,553,5309,PPL
Patagunta,13.43619,79.28224,02,752,5398,PPL
Pasupugallu,15.80529,79.80087,02,549,5113,PPL
Pasra,18.19955,80.16971,40,780,4688,PPL
Pasaluru,14.64743,77.67107,02,553,5329,PPL
Parvatipuram,18.78392,83.42569,02,743,4812,PPL
Parumanchala,15.79754,78.40187,02,755,5262,PPL
Paruchuru,15.97091,80.27493,02,750,5108,PPL
Partiala,16.65872,80.40901,02,749,5007,PPL
Parnasala,17.93186,80.89639,40,690,4729,PPL
Parnapalle,14.56883,77.97155,02,551,5218,PPL
Parlapalli,14.35075,79.75591,02,550,5176,PPL
Parkal,18.19841,79.70072,40,686,4679,PPL
Parigi,13.89255,77.45965,02,754,5355,PPL
Pargi,17.17561,77.8781,40,698,4540,PPL
Paravada,17.62828,83.07925,02,744,4870,PPL
Paradarami,13.06789,78.97387,02,,,PPL
Papannapet,18.03668,78.08818,40,535,4455,PPL
Paniem,15.51777,78.3485,02,755,5280,PPL
Pandwapur,19.09333,78.80005,40,680,4335,PPL
Pandiam,17.74467,80.21201,40,688,4742,PPL
Pandharwara,19.80485,78.59551,40,532,4307,PPL
Panchalingal,16.40835,77.56606,40,781,4589,PPL
Panapakkam,13.49671,79.20936,02,752,5384,PPL
Pamuru,15.09633,79.41174,02,549,5146,PPL
Pamudurti,14.26967,77.97266,02,754,5345,PPL
Pamidi,14.94623,77.59266,02,553,5315,PPL
Pamarru,16.32544,80.9599,02,547,5028,PPL
Pamalparti,17.77175,78.69609,40,692,6282,PPL
Paluvayi,16.75744,79.03488,40,539,4657,PPL
Paluru,14.12654,79.7164,02,550,5185,PPL
Palugurallapalle,14.87003,78.93179,02,551,5205,PPL
Paloncha,17.60184,80.70509,40,690,4737,PPL
Palmaner,13.2,78.74725,02,554,5422,PPL
Palmala,18.67134,80.22056,40,687,6250,PPL
Pallipeta,18.35356,84.10967,02,542,4800,PPL
Pallevada,16.5779,81.29463,02,748,5016,PPL
Pallapatla,15.98625,80.75827,02,750,5094,PPL
Palkonda,18.60374,83.75568,02,743,4784,PPL
Palicharlapadu,14.35748,79.8209,02,550,5182,PPL
Palicherla,14.10657,79.80993,02,752,5184,PPL
Palasamudram,13.95896,77.67514,02,754,5362,PPL
Palasa,18.77257,84.41012,02,542,4775,PPL
Palampet,18.3,79.93333,40,687,4683,PPL
Palakollu,16.5167,81.73,02,546,4988,PPLA3
Palagiri,14.45766,78.44536,02,551,5222,PPL
Pakala,13.44903,79.11493,02,752,5396,PPL
Pagidyala,15.93648,78.34238,02,755,5261,PPL
Padmanabham,17.98931,83.3319,02,544,4864,PPL
Paderu,18.07776,82.66037,02,745,4847,PPL
Pachipenta,18.47962,83.11332,02,743,4818,PPL
Owk,15.20882,78.11676,02,755,5295,PPL
Osmannagar,18.52203,79.32155,40,682,4425,PPL
Vontimitta,14.39575,79.02673,02,551,5228,PPL
Ongole,15.50357,80.04454,02,549,5139,PPL
Olluru,13.51713,79.71933,02,752,5382,PPL
Obulam,14.51425,79.19705,02,551,5211,PPL
Nuzvid,16.78854,80.84593,02,748,5003,PPL
Nuvalrevu,18.67793,84.43818,02,542,4781,PPL
Nutimadugu,14.49186,77.32558,02,553,5334,PPL
Natalapadu,15.93661,80.22972,02,750,5108,PPL
Nossam,14.9886,78.39154,02,755,5300,PPL
Nizampet,18.09209,77.88117,40,691,4452,PPL
Nizampatnam,15.90489,80.66858,02,750,5094,PPL
Nizamabad,18.67154,78.0988,40,533,6233,PPL
Nizamabad,16.54158,78.66194,40,694,4577,PPL
Nirmal,19.09685,78.34407,40,680,6210,PPLA2
Nindali,14.10745,79.69771,02,752,5188,PPL
Nimbagallu,14.88814,77.20843,02,553,5317,PPL
Nilguda,17.25,80.43333,40,541,4762,PPL
Nighwa,19.18542,77.85895,40,680,4338,PPL
Nidumolu,16.26667,81.03333,02,547,5031,PPL
Nidubrolu,16.06667,80.56667,02,548,5084,PPL
Nidjapla,17.85017,77.87807,40,691,6291,PPL
Nidadavole,16.90572,81.67222,02,545,4960,PPL
Niala Kondapalle,17.10253,80.05327,40,541,4759,PPL
Nerijamupalle,14.54291,78.01407,02,553,5327,PPL
Nereducherla,15.20558,77.90766,02,755,5294,PPL
Neredikonda,19.29925,78.40758,40,532,4325,PPL
Nerabylu,13.74962,79.16326,02,752,5374,PPL
Nemalladinne,14.96327,78.48594,02,551,5201,PPL
Nellurapalem,14.64745,79.61394,02,550,5164,PPL
Nellore,14.44992,79.98697,02,550,5177,PPLA2
Nellimarla,18.15619,83.44727,02,543,4837,PPL
Nellaturu,14.15136,79.82448,02,752,5184,PPL
Nekonda,17.79447,79.80264,40,540,4713,PPL
Nekarikallu,16.37167,79.94235,02,751,5060,PPL
Nayudupet,13.90742,79.89465,02,752,5194,PPL
Nayalkal,17.84745,77.6625,40,691,4473,PPL
Nayakkaneri,12.9421,78.60347,02,554,5424,PPL
Nawabpet,17.67071,79.2395,40,689,4700,PPL
Nawabpet,16.89645,78.03208,40,538,4556,PPL
Navutala,18.70093,84.03183,02,542,4788,PPL
Navuru,14.48227,79.67472,02,550,5176,PPL
Naupada,18.56193,84.29887,02,542,4790,PPL
Naspur,18.84577,79.46165,40,684,4354,PPL
Narwa,18.2567,77.96892,40,685,4385,PPL
Narsipatnam,17.66709,82.61245,02,744,4854,PPL
Narsingi,18.04468,78.42516,40,535,6272,PPL
Narsapur,19.09368,78.15591,40,680,6208,PPL
Narsampet,17.92786,79.89227,40,540,4708,PPL
Narnuru,15.71533,78.08324,02,552,5268,PPL
Narlapur,18.30958,80.20366,40,780,4687,PPL
Narayanpur,17.16187,78.87902,40,697,4648,PPL
Narayanpur,16.00574,77.92525,40,695,4611,PPL
Narayanpet,16.74799,77.4954,40,781,4570,PPLA2
Narayankher,18.03413,77.77284,40,691,4452,PPL
Nareguda,17.39955,78.01795,40,698,4514,PPL
Narayanavanam,13.42565,79.58881,02,752,5400,PPL
Narasingarayanpet,13.17579,79.20861,02,554,5421,PPL
Narasingapuram,18.08576,79.32327,40,686,4448,PPL
Narasingapuram,13.60759,79.31652,02,752,5384,PPL
Narasimharaopalem,17.01835,80.82553,02,748,5001,PPL
Narasaraopet,16.23488,80.04927,02,751,5067,PPL
Narasapur,16.43425,81.69845,02,546,4987,PPL
Narasannapeta,18.41428,84.04463,02,542,4799,PPL
Narapala,14.71087,77.80835,02,553,5328,PPL
Naranjigundlapalle,14.70632,77.05461,02,553,5318,PPL
Naraharipeta,13.09113,79.13369,02,554,5431,PPL
Nannial,19.06667,79.63333,40,684,4331,PPL
Nandyal,15.47799,78.4836,02,755,5284,PPL
Nandkonda,16.6,79.3,40,539,4659,PPL
Nandivaya,14.43242,79.7332,02,550,5176,PPL
Nandavaram,15.42375,78.3189,02,755,5288,PPL
Nandipadu,15.03721,78.15671,02,755,5301,PPL
Nandipadu,14.8039,79.34249,02,550,5162,PPL
Nandikotkur,15.85668,78.26569,02,755,5260,PPL
Nandigama,16.7717,80.28596,02,749,4993,PPL
Nandigam,18.65418,84.30469,02,542,4782,PPL
Nandavaram,15.85328,77.48478,02,552,5255,PPL
Nandavaram,14.70003,79.46426,02,550,5163,PPL
Nandanavanam,15.47054,79.27434,02,549,5130,PPL
Nandalur,14.26747,79.11884,02,753,5243,PPL
Nancherla,16.92168,77.85629,40,538,7187,PPL
Nallikodur,17.58013,79.75361,40,688,4716,PPL
Nallajerla,16.94752,81.40601,02,545,4956,PPL
Nallapalem,14.51019,79.75365,02,550,5176,PPL
Nalgonda,17.05439,79.26707,40,539,4646,PPL
Nakrekal,17.16259,79.42754,40,539,4636,PPL
Nakkodipalem,17.73333,83.31667,02,544,4866,PPL
Nagulavaram,15.97689,79.88924,02,751,5062,PPL
Nagpur,17.86308,78.88423,40,692,4672,PPL
Nagnur,18.06288,79.03895,40,692,4461,PPL
Nagireddipalli,14.27005,79.10131,02,753,5243,PPL
Nagayalanka,15.94847,80.9164,02,547,5038,PPL
Nagasamudram,14.30716,77.65742,02,754,5347,PPL
Nagar Karnul,16.4821,78.32471,40,694,4583,PPLA2
Nagari,13.32139,79.58557,02,554,5406,PPL
Nagaram,18.34305,80.43161,40,780,4685,PPL
Nagalapuram,13.38836,79.79623,02,752,5403,PPL
Nagaladinne,15.91477,77.56546,40,538,,PPL
Nachugunta,15.78616,80.88794,02,547,5038,PPL
Mutyalapadu,15.03973,78.59877,02,755,5303,PPL
Mutyalapadu,14.1104,79.89195,02,752,5190,PPL
Mutyalammapadu,16.5247,80.63733,02,749,5010,PPLX
Mutukula,16.16251,79.53109,02,549,5098,PPL
Muttukuru,14.29022,80.0949,02,550,5181,PPL
Muttukuru,13.28534,78.62713,02,554,5416,PPL
Mutssukota,14.84943,77.87519,02,553,5314,PPL
Mutaram,18.50552,79.62633,40,682,4406,PPL
Mustabada,16.55446,80.72544,02,547,5012,PPL
Musapet,16.6015,77.98039,40,538,6260,PPL
Musalimadugu,15.97128,78.43596,02,755,5263,PPL
Mupawaram,16.85336,79.361,40,539,4661,PPL
Mungonda,16.6,81.91667,02,747,4934,PPL
Mungod,17.08124,79.07515,40,539,4647,PPL
Mungamuru,14.80764,80.0185,02,550,5159,PPL
Mundlapadu,15.33041,78.89937,02,549,5133,PPL
Munagala,17.05119,79.83604,40,696,4642,PPL
Mummidivaram,16.64403,82.10742,02,747,4932,PPL
Mulug,18.18955,79.9437,40,780,4689,PPL
Mukhalingam,18.5965,83.9634,02,542,4792,PPL
Muhammadabad,16.87287,77.89102,40,538,7187,PPL
Muhammadabad,13.97066,78.00716,02,754,5361,PPL
Mughalgidda,17.08751,78.12237,40,537,4559,PPL
Mudumpadu,13.92862,79.00559,02,753,5238,PPL
Mudumala,16.38751,77.43617,40,781,6264,PPL
Mudivedu,13.70856,78.50664,02,753,5389,PPL
Mudinepalle,16.4,81.11667,02,748,5020,PPL
Mudigubba,14.34575,77.9919,02,754,5339,PPL
Mudigodu,14.33407,79.72396,02,550,5176,PPL
Mudhol,18.97479,77.91071,40,680,4341,PPL
Muddur,17.92671,79.04597,40,692,4673,PPL
Muddumudi,14.28004,79.86547,02,550,5183,PPL
Muddavaram,15.49965,78.09718,02,755,5279,PPL
Muddanuru,14.68718,78.39309,02,551,5216,PPL
Motumala,15.48509,80.18847,02,549,5140,PPL
Motkur,17.46297,79.26054,40,697,4625,PPL
Moteh,17.16861,79.80359,40,696,4640,PPL
Mortad,18.81313,78.46363,40,533,4362,PPL
Morangpalli,17.49026,77.87251,40,698,4513,PPL
Mopuru,14.44134,79.82117,02,550,5177,PPL
Mopuru,14.06982,79.59574,02,752,5186,PPL
Mopadu,15.0932,79.4907,02,549,5146,PPL
Mondemkhallu,18.9213,83.6935,02,743,4809,PPL
Momidi,14.19635,80.04623,02,752,5190,PPL
Molagavalli,15.35721,77.33098,02,552,5274,PPL
Mohammadnagar,16.50179,80.65046,02,749,5010,PPLX
Mogalturru,16.41233,81.60773,02,546,4986,PPL
Mogalrajapuram,16.50843,80.64414,02,749,5010,PPLX
Mogalluru,14.39768,79.66554,02,550,5176,PPL
Mogallu,16.6,81.56667,02,546,4977,PPL
Mogallapalem,14.42511,79.83322,02,550,5177,PPL
Mittatukuru,14.24845,79.80268,02,752,5184,PPL
Miryalaguda,16.8722,79.56247,40,539,4664,PPL
Mijuru,13.76604,80.08154,02,752,5196,PPL
Miduturu,15.76999,78.2895,02,755,5267,PPL
Menur,18.47829,77.65689,40,685,4372,PPL
Mentada,18.31014,83.2612,02,543,4824,PPL
Meliyaputtu,18.77678,84.15608,02,542,4774,PPL
Medlacheruvu,16.82214,79.92804,40,696,4671,PPL
Medikurti,13.70865,78.77243,02,753,5387,PPL
Medchal,17.62972,78.48139,40,700,4519,PPL
Medarametla,15.72475,80.01966,02,750,5122,PPL
Medapadu,17.00445,82.10011,02,746,4910,PPL
Medak,18.04531,78.26078,40,535,4456,PPL
Mayaluru,15.10564,78.35987,02,755,5302,PPL
Maula Ali,17.46247,78.55895,40,700,4522,PPL
Mattampalli,16.78223,79.87283,40,696,4670,PPL
Matsavaram,16.51793,80.65055,02,749,5010,PPLX
Mathwada,17.98362,79.60087,40,540,4706,PPL
Mated,17.5447,79.70248,40,688,4715,PPL
Matalkunta,17.78345,77.5622,40,691,4473,PPL
Masanutippa,16.65899,82.31369,02,747,4943,PPL
Masaipet,17.90533,78.46162,40,535,7190,PPL
Maruturu,15.98665,80.10585,02,750,5106,PPL
Maruteru,16.62369,81.73945,02,546,4978,PPL
Maruru,14.4932,77.62627,02,553,5331,PPL
Marupuru,14.40213,79.80158,02,550,5176,PPL
Marrigudem,17.93668,80.20141,40,688,6253,PPL
Marrayagudem,17.78847,81.02996,40,690,4729,PPL
Marpalli Kalan,17.53924,77.77082,40,698,4512,PPL
Marlapenta,15.80941,79.01164,02,549,5100,PPL
Marlapalli,19.34399,78.2406,40,532,4324,PPL
Markuk,17.75222,78.72028,40,692,6282,PPL
Markodu,17.91202,80.50609,40,690,6267,PPL
Markapur,15.73534,79.26848,02,549,5115,PPL
Marikal,16.9221,77.98726,40,698,7186,PPL
Marikal,16.60202,77.72923,40,781,6263,PPL
Mardaguda,18.23994,82.99878,02,745,4845,PPL
Maradugu,16.35,79.05,40,694,6294,PPL
Maradam,18.40207,83.34342,02,543,4823,PPL
Manyapadu,15.96304,77.93962,40,695,4611,PPL
Manubolu,14.19949,79.87268,02,550,5183,PPL
Manthani,18.65087,79.66501,40,682,4401,PPL
Mangapet,18.25396,80.51981,40,780,4686,PPL
Mangalapuru,14.12096,79.79426,02,752,5184,PPL
Mangalampeta,13.57734,79.09338,02,554,5395,PPL
Mangalagunta,14.31653,79.86236,02,550,5182,PPL
Mangalagiri,16.43083,80.56815,02,548,5055,PPL
Mandasa,18.8683,84.46296,02,542,4776,PPL
Mandapeta,16.86254,81.92921,02,747,4920,PPL
Manchippa,18.5342,78.11419,40,533,6235,PPL
Mancherial,18.87074,79.42863,40,684,4354,PPL
Mananur,16.37154,78.75857,40,694,4578,PPL
Mamidipalle,18.61048,83.17797,02,743,4817,PPL
Mamda,19.07626,78.5219,40,680,4346,PPL
Mamanduru,13.7454,79.46231,02,752,5376,PPL
Mamadipalli,19.23245,79.00797,40,699,6311,PPL
Mallapuram,18.97073,78.70573,40,681,4394,PPL
Mallampalli,18.11051,79.84944,40,780,4689,PPL
Mallam,13.95495,80.11578,02,752,5193,PPL
Malkapur,17.75608,77.589,40,691,4473,PPL
Malkapur,17.27481,78.79723,40,697,4631,PPL
Malichedu,14.31119,79.72681,02,550,5185,PPL
Malial,18.70394,78.9493,40,681,4413,PPL
Malchalma,17.58058,77.60985,40,691,4474,PPL
Malakapuram,17.68525,83.24367,02,544,4866,PPL
Makkuva,18.66177,83.26723,02,743,4813,PPL
Makkapeta,16.93333,79.2,40,539,4656,PPL
Makhtal,16.50107,77.51596,40,781,4589,PPL
Maisaram,17.13351,78.43548,40,537,4544,PPL
Maipadu,14.50726,80.16448,02,550,5179,PPL
Mailwar Azimpet,17.14474,77.41197,40,698,4535,PPL
Mailavaram,16.75785,80.64142,02,749,4995,PPL
Mailaram,18.47441,77.85819,40,685,6244,PPL
Mahisama,16.95021,78.52127,40,537,6324,PPL
Mahbubnagar,16.74385,77.98597,40,538,4568,PPLA2
Mahbubabad,17.59728,80.00207,40,688,4718,PPLA2
Mahal,13.77598,78.78974,02,753,5387,PPL
Mahadeopur,18.72879,79.98504,40,687,4403,PPL
Magnur,16.45854,77.42938,40,781,4590,PPL
Magaturu,15.70383,79.08553,02,549,5116,PPL
Madugula,17.91589,82.81578,02,744,4857,PPL
Madnur,18.50247,77.62449,40,685,4372,PPL
Madnakal,16.12376,77.69463,40,695,4604,PPL
Madhavaram,15.93642,77.35695,02,552,5250,PPL
Madhavaram,14.41881,79.12484,02,551,5228,PPLQ
Madgi,17.68649,77.46678,40,691,6278,PPL
Maddur,16.86053,77.61245,40,781,4554,PPL
Madduluru,15.46056,79.86665,02,549,5138,PPL
Maddipenta,15.72635,78.79794,02,549,5116,PPL
Maddimadugu,14.34546,78.77829,02,551,5231,PPL
Maddilapalem,17.73723,83.31826,02,544,4866,PPL
Maddikera,15.24958,77.41592,02,552,5292,PPL
Madanapalle,13.5503,78.50288,02,753,5392,PPL
Madamanuru,14.23692,79.84301,02,550,5183,PPL
Madakasira,13.94095,77.27063,02,754,5350,PPL
Machilipatnam,16.18747,81.13888,02,547,5034,PPL
Macherla,16.47635,79.43533,02,751,5040,PPL
Macharla,16.08805,77.54842,40,695,4605,PPL
Lotugadda,17.96404,82.39417,02,745,4849,PPL
Loheswar,19.03115,78.08567,40,680,4342,PPL
Lingapur,19.02224,79.12763,40,684,4348,PPL
Lingampet,18.23814,78.13059,40,685,4388,PPL
Lingampalli,17.48653,78.31699,40,537,4516,PPL
Lingala,18.0057,80.2895,40,780,4687,PPL
Lingala,14.4992,78.11468,02,551,5218,PPL
Lingal,16.26834,78.51701,40,694,4598,PPL
Lepakshi,13.80306,77.60863,02,754,5365,PPL
Lavanuru,14.70535,78.15223,02,551,5199,PPL
Lankavanidibba,15.79227,80.84218,02,750,5096,PPL
Lammasingi,17.81696,82.49264,02,745,4849,PPL
Lalaguda,17.43806,78.54056,40,536,4500,PPL
Lakshmipuro,18.3955,82.44187,02,745,4841,PPL
Lakshettipet,18.86667,79.21667,40,684,4353,PPL
Lakkireddipalle,14.18318,78.69846,02,753,5240,PPL
Lakkavarapukota,18.0239,83.15679,02,543,4833,PPL
Kutravada,17.66695,81.71265,02,745,4884,PPL
Kushmanchi,17.22931,79.95399,40,541,4755,PPL
Kuruva Nagalapuram,15.75466,77.90415,02,552,5257,PPL
Kurupam,18.86626,83.55195,02,743,4809,PPL
Kurnool,15.82887,78.03602,02,552,5259,PPL
Kurichedu,15.90325,79.57689,02,549,5103,PPL
Kurabalakota,13.65227,78.48184,02,753,5389,PPL
Kuppili,18.17673,83.8078,02,542,4806,PPL
Kuppam,13.6218,80.13705,02,752,5198,PPL
Kuppam,12.74931,78.34189,02,554,5427,PPL
Kuppagallu,15.73008,77.23732,02,552,5271,PPL
Kundurpi,14.29181,77.03456,02,553,5333,PPL
Kunduluru,17.66842,81.40957,40,541,,PPL
Kondakal,17.4613,78.19934,40,537,4515,PPL
Kunchanapalle,16.46233,80.61758,02,548,5054,PPL
Kunavaram,17.57476,81.25302,40,541,,PPL
Kunamanur,16.55569,77.69978,40,781,6263,PPL
Kumbhagiri,14.58887,79.06606,02,551,5227,PPL
Kulkulapalli,16.91276,78.72251,40,537,4564,PPL
Kukunuru,17.55782,81.1761,40,541,,PPL
Kuknurpalli,17.89153,78.79609,40,692,4462,PPL
Kukatpally,17.48486,78.41376,40,700,4517,PPLA3
Kudmalpadu,17.4778,81.12311,40,690,4749,PPL
Kuderu,14.73082,77.4275,02,553,5323,PPL
Krosuru,16.54286,80.1384,02,751,5051,PPL
Krishnayapalem,16.48805,80.55721,02,548,5055,PPL
Kistnapatam,14.28874,80.12388,02,550,5181,PPL
Krishnagiri,15.55583,77.82993,02,552,5277,PPL
Krishnadevipeta,17.67254,82.3799,02,744,4853,PPL
Koyyuru,17.6606,82.20981,02,745,4851,PPL
Koyyalagudem,17.12879,81.42815,02,748,4952,PPL
Kovvur,17.0162,81.72934,02,545,4958,PPL
Kovurupalli,14.7772,79.99993,02,550,5159,PPL
Kovur,14.5005,79.98518,02,550,5178,PPL
Kotturu,18.77917,83.88357,02,542,4772,PPL
Kottavalasa,17.89044,83.1907,02,543,4834,PPL
Kottaravupeta,18.38489,84.14991,02,542,4800,PPL
Kottapeta,16.71667,81.9,02,747,4927,PPL
Kottapeta,14.1109,78.9543,02,753,5242,PPL
Kottapatam,15.44616,80.16601,02,549,5140,PPL
Kottapatam,14.12096,80.11771,02,752,5191,PPL
Kottapalli,18.49543,79.0943,40,534,6230,PPL
Kottapalle,14.36734,78.35819,02,551,5220,PPL
Kottapalem,15.88569,80.80274,02,750,5094,PPL
Kottakota,17.75133,82.70039,02,744,4855,PPL
Kottakota,13.6573,78.26253,02,753,5391,PPL
Kottagudem,18.07191,80.46342,40,780,4686,PPL
Kottagudem,17.55106,80.61779,40,690,6376,PPLA2
Kotta Agraharam,18.33333,84.11667,02,542,4801,PPL
Kottapalle,17.90783,82.90159,02,744,4858,PPL
Kotipalle,16.7,82.03333,02,747,4929,PPL
Kothapet,19.35176,79.48323,40,699,4318,PPL
Kothakota,16.38002,77.94004,40,693,4593,PPL
Kotgir,18.57242,77.82419,40,533,4371,PPL
Kotepalli,17.38364,77.74366,40,698,6312,PPL
Kotauratla,17.56575,82.68796,02,744,4874,PPL
Kotananduru,17.48235,82.48915,02,746,4889,PPL
Kotakunda,16.75715,77.64286,40,781,4570,PPL
Kotabommali,18.52016,84.16251,02,542,4791,PPL
Kota,17.57951,81.89792,02,745,4886,PPL
Kota,14.04028,80.04879,02,752,5191,PPL
Kosigi,15.8551,77.24463,02,552,5251,PPL
Kosgi,16.98786,77.71802,40,781,4551,PPL
Kosapuram,13.89657,78.66229,02,753,5236,PPL
Korukollu,16.5,81.25,02,748,5017,PPL
Kortimadugu,14.29907,78.89451,02,753,5241,PPL
Korosavada,18.72564,84.05733,02,542,4783,PPL
Koratla,18.82154,78.71186,40,681,4416,PPL
Korangal,17.10468,77.6299,40,698,4549,PPL
Koradi,13.76971,80.14308,02,752,5197,PPL
Konta,17.80492,81.38666,40,541,,PPL
Konduru,16.67802,80.57297,02,749,5006,PPL
Kondur,14.01402,80.13075,02,752,5192,PPL
Kondrapole,16.78589,79.61057,40,539,4663,PPL
Kondlapalli,14.46058,79.70391,02,550,5176,PPL
Kondavidu,16.2632,80.2623,02,751,5071,PPL
Kondapuram,14.77582,78.19488,02,551,5199,PPL
Kondapur,17.6779,79.68015,40,688,4715,PPL
Kondapalle,16.61989,80.54244,02,749,5009,PPL
Kondakomarla,14.06782,77.95613,02,754,5358,PPL
Kondagunta,14.08213,79.79379,02,752,5184,PPL
Konasamudram,18.729,78.52308,40,533,4363,PPL
Konapeta,14.21004,78.65048,02,753,5240,PPL
Konakanametla,15.65285,79.48907,02,549,5119,PPL
Konada,18.01731,83.56285,02,543,4838,PPL
Kommi,14.96756,79.76156,02,550,5156,PPL
Kommalapudi,14.27553,79.88591,02,550,5183,PPL
Kommalapadu,16.02871,79.94412,02,750,5104,PPL
Komarolu,15.26667,79.0,02,549,5134,PPL
Kolluru,16.18336,80.7966,02,750,5088,PPL
Kolimigundla,15.07601,78.1073,02,755,5301,PPL
Kolhapur,16.10683,78.32006,40,694,4609,PPL
Kolanukonda,16.45392,80.61046,02,548,5054,PPL
Kolakaluru,16.30608,80.6181,02,548,5078,PPL
Kokkanti,13.94027,78.27858,02,754,5360,PPL
Koilkuntla,15.23068,78.31665,02,755,5296,PPL
Koilkonda,16.75603,77.78902,40,538,4569,PPL
Kohir,17.59929,77.71581,40,691,4475,PPL
Koduru,18.27743,83.54646,02,543,4826,PPL
Koduru,17.92276,83.03429,02,744,4860,PPL
Koduru,14.87329,78.10534,02,551,5199,PPL
Koduru,14.41305,80.14505,02,550,5180,PPL
Kodur,16.67829,77.92412,40,538,6258,PPL
Kodur,13.95771,79.35132,02,753,5249,PPL
Kodumur,15.68126,77.77198,02,552,5269,PPL
Kodmial,18.63068,78.899,40,681,4420,PPL
Kodikonda,13.83269,77.77438,02,754,5366,PPL
Koder,16.26629,78.28623,40,694,4600,PPL
Kodavaluru,14.56689,80.00341,02,550,5169,PPL
Kodar,16.9985,79.9656,40,696,4668,PPL
Kobir,19.25972,77.94478,40,680,4338,PPL
Kisumpet,16.9516,78.34781,40,537,4561,PPL
Kistna,16.41045,77.33223,40,781,6264,PPL
Kistaram,17.66038,80.50348,40,690,4739,PPL
Kichanapalle,17.90407,80.51736,40,690,6267,PPL
Kiadgira,17.25255,77.43337,40,698,4535,PPL
Khilogodo,18.31947,82.5363,02,745,4841,PPL
Khanapur,19.0441,78.64605,40,680,4347,PPL
Khammam,17.24767,80.14368,40,541,4757,PPL
Khajipeta,14.65091,78.77021,02,551,5212,PPL
Kesaram,17.76397,77.88039,40,691,4477,PPL
Kesanupalle,16.58354,79.74024,02,751,5045,PPL
Kerimeri,19.44276,79.05032,40,699,4313,PPL
Kazipet,17.97764,79.53074,40,686,4695,PPL
Kavutaram,16.33333,81.08333,02,547,5029,PPL
Kavuru,16.1397,80.1225,02,751,5070,PPL
Kaviti,19.01142,84.69038,02,542,4779,PPL
Kavali,14.9163,79.99449,02,550,5158,PPL
Kaulas,18.3321,77.69789,40,685,6245,PPL
Kaukuntla,16.52309,77.86116,40,538,4573,PPL
Kattubadipalli,14.30222,79.75627,02,550,5185,PPL
Kattipudi,17.24183,82.33625,02,746,4892,PPL
Katepalli,19.43333,79.83333,40,699,4317,PPL
Katarukonda,15.42649,77.75531,02,552,5277,PPL
Katapuram,18.16311,80.3974,40,780,4687,PPL
Katangur,17.15988,79.31298,40,539,4635,PPL
Kasumuru,14.33951,79.85699,02,550,5182,PPL
Kasipet,19.02701,79.43806,40,684,4349,PPL
Kasipatnam,18.21552,83.11833,02,745,4845,PPL
Kasibugga,18.75927,84.41613,02,542,4775,PPL
Karvetnagar,13.42136,79.44838,02,554,5408,PPL
Karpal,18.12878,77.76297,40,691,6279,PPL
Karivemula,15.59458,77.59957,02,552,5276,PPL
Karimnagar,18.43915,79.12856,40,534,4428,PPLA2
Karepalli,17.48333,80.23333,40,541,4744,PPL
Karempudi,16.42901,79.72063,02,751,5046,PPL
Karedu,15.18739,80.05903,02,550,5152,PPL
Karavadi,15.54623,80.11448,02,549,5139,PPL
Karapa,16.9,82.16667,02,746,4922,PPL
Karanchedu,15.88426,80.31632,02,750,5109,PPL
Karameda,16.2,81.16667,02,547,5034,PPL
Kapileswarapuram,16.32391,80.86711,02,547,5026,PPL
Kanuparti,15.58236,80.21223,02,549,5126,PPL
Kanuparti,14.42549,79.69525,02,550,5176,PPL
Kannapuram,17.18197,81.41428,02,748,4952,PPL
Kankipadu,16.4353,80.76715,02,547,5023,PPL
Kanigiri,15.40555,79.50694,02,549,5136,PPL
Kangundi,12.76945,78.43463,02,554,5427,PPL
Kangti,18.22521,77.61633,40,691,4450,PPL
Kanepalli,19.15,79.68333,40,684,6229,PPL
Kanekallu,14.80502,77.07835,02,553,5306,PPL
Kanduru,13.55651,78.77351,02,554,5412,PPL
Kandukuru,14.58754,77.64488,02,553,5330,PPL
Kandukur,15.21542,79.9039,02,550,5148,PPL
Kandukur,13.76436,78.1566,02,753,5390,PPL
Kandkurti,18.81327,77.89017,40,533,4357,PPL
Kandamuru,14.46552,79.78982,02,550,5177,PPL
Kanakanur,18.54941,80.19998,40,687,4404,PPL
Kanakammachattram,13.20683,79.75057,02,554,,PPL
Kanaganapalle,14.44798,77.52601,02,754,5335,PPL
Kamlapur,18.46847,79.92141,40,687,4682,PPL
Kamkol,17.64465,77.80854,40,691,4477,PPL
Kambhampadu,16.98579,80.65233,02,749,4998,PPL
Kambalapalle,15.84143,78.50547,02,755,5266,PPL
Kamavarapukota,17.00981,81.19246,02,748,4954,PPL
Kamarpalli,18.83333,78.53333,40,533,4363,PPL
Kamareddi,18.32001,78.34177,40,685,4390,PPLA2
Kamanpur,18.66032,79.50184,40,682,4400,PPL
Kamalapuram,14.5983,78.66948,02,551,5224,PPL
Kalwakurti,16.66396,78.49143,40,694,4576,PPL
Kaluvaya,14.5117,79.41013,02,550,5174,PPL
Kalmargu,19.09153,78.9496,40,684,4334,PPL
Kalluru,13.55819,78.99923,02,554,5395,PPL
Kallur,17.20267,80.54582,40,541,4763,PPL
Kalingapatnam,18.3378,84.12403,02,542,4801,PPL
Kalikiri,13.64233,78.80142,02,753,5387,PPL
Kaligotla,17.90338,82.96639,02,744,4859,PPL
Kaligiri,14.82844,79.69073,02,550,5160,PPL
Kalicherla,13.8877,78.53778,02,753,5369,PPL
Kalichedu,14.29988,79.73483,02,550,5185,PPL
Kalva,15.62209,78.20008,02,552,5268,PPL
Kalasapadu,15.10768,78.94149,02,551,5207,PPL
Kalakada,13.827,78.78931,02,753,5371,PPL
Kalabgur,18.65,78.06667,40,533,6233,PPL
Kakitalapuru,14.21702,79.89985,02,550,5183,PPL
Kakinada,16.96036,82.23809,02,746,4914,PPL
Kaikaram,16.81084,81.36611,02,748,4962,PPL
Kaikalur,16.55154,81.214,02,748,5016,PPL
Kadiyam,16.91667,81.83333,02,545,4918,PPL
Kadiri,14.11168,78.15982,02,754,5343,PPL
Kadavakuduru,15.72614,80.25466,02,750,5125,PPL
Kadapgal Buzurg,18.28943,77.75865,40,685,6245,PPL
Kadapatra,13.7837,80.16493,02,752,5197,PPL
Julakalava,14.83252,77.80153,02,553,5325,PPL
Jukal,18.35974,77.6033,40,685,4373,PPL
Jonnagiri,15.23028,77.5714,02,552,5293,PPL
Jogipet,17.83564,78.06811,40,691,4479,PPL
Jogipalli,14.21952,79.72843,02,550,5185,PPL
Jilugumilli,17.21138,81.13361,02,748,4947,PPL
Jidkal,17.60653,79.1618,40,689,4700,PPL
Jhara Sangam,17.76453,77.71328,40,691,4476,PPL
Jhadupudi,19.01595,84.60999,02,542,4777,PPL
Jayantipur,19.08808,84.61242,02,,,PPL
Jayampu,14.02475,79.73071,02,752,5188,PPL
Jararha,19.07747,84.50255,02,,,PPL
Jangid,18.44751,79.84145,40,687,4682,PPL
Jangaon,17.72602,79.15236,40,689,4699,PPLA2
Jammalamadugu,14.84677,78.38314,02,551,5215,PPL
Jamikunta,18.29507,79.44926,40,534,4440,PPL
Jami,18.05252,83.2621,02,543,4835,PPL
Jamb,19.19338,78.27949,40,680,4336,PPL
Jalumuru,18.5112,84.03866,02,542,4792,PPL
Jallivaripullalacheruvu,15.49871,78.92237,02,549,5132,PPL
Jalaripeta,17.73333,83.35,02,544,,PPL
Jalantra,18.95673,84.54683,02,542,4777,PPL
Jaipuram,18.85112,79.58308,40,684,4355,PPL
Jainath,19.73571,78.64256,40,532,4307,PPL
Jagtial,18.79473,78.91661,40,681,4414,PPLA2
Jaggayyapeta,16.8938,80.09807,02,749,4991,PPL
Jaggampeta,17.17,82.06115,02,746,4898,PPL
Jagannadharaju Chattram,18.20257,83.69039,02,542,4805,PPL
Jagannadhapuram,16.93333,82.23333,02,746,4914,PPL
Jafalapuram,14.21516,79.708,02,550,5185,PPL
Jaddangi,17.48144,82.15518,02,745,4888,PPL
Jadcherla,16.77381,78.13666,40,538,4567,PPL
Itamukkala,15.37313,80.11301,02,549,5140,PPL
Iskapalli,14.73631,80.09812,02,550,5167,PPL
Iskagundam,15.59753,78.81255,02,549,5133,PPL
Irakam,13.57169,80.14617,02,752,5198,PPL
Ipuru,16.23038,79.7751,02,751,5065,PPL
Ippalguda,17.78234,78.70624,40,692,6282,PPL
Ippalagadda,17.91318,80.34638,40,690,4741,PPL
Inukurti,14.34025,79.71333,02,550,5176,PPL
Inkollu,15.82778,80.19208,02,750,5110,PPL
Indukurupeta,14.47257,80.10678,02,550,5179,PPL
Indalvai,18.53978,78.22453,40,533,6236,PPL
Inamanamelluru,15.60195,80.07358,02,549,5127,PPL
Ilur,19.26667,79.78333,40,699,6313,PPL
Iiiuru Kottapeta,15.27741,78.25736,02,755,5288,PPL
Ij,16.01667,77.68333,40,695,4606,PPL
Ichora,19.42966,78.45285,40,532,4322,PPL
Ichchapuram,19.11393,84.68721,02,542,4778,PPL
Ibrahimpatan,18.90596,78.58356,40,681,4393,PPL
Ibrahimpatan,17.19573,78.65101,40,537,4546,PPL
Hyderabad,17.38405,78.45636,40,536,,PPLA
Huzurnagar,16.89481,79.87096,40,696,4669,PPL
Huzurabad,18.20089,79.39876,40,534,4446,PPL
Husnabad,17.05254,77.6514,40,698,4549,PPL
Hosuru,15.37969,77.45976,02,552,5290,PPL
Honwada,16.73333,77.93333,40,538,4568,PPL
Honnuru,14.90806,77.08572,02,553,5307,PPL
Holalagondi,15.48784,77.04752,02,552,5272,PPL
Hiramandalam,18.67085,83.95054,02,542,4783,PPL
Hindupur,13.82807,77.49143,02,754,5364,PPL
Hebbetti,15.55008,77.16113,02,552,5272,PPL
Hatnur,17.7382,78.1681,40,691,4489,PPL
Hasanparti,18.07036,79.5223,40,686,4678,PPL
Hasanabad,18.13135,79.20743,40,692,4444,PPL
Harivanam,15.63266,77.1032,02,552,5271,PPL
Haripur,18.84619,84.50387,02,542,4776,PPL
Hanamkonda,18.01009,79.56936,40,686,4695,PPL
Halvi,15.88704,77.12119,02,552,5252,PPL
Hakimpet,17.54783,78.53648,40,700,4520,PPL
Haidar Sahibguda,17.36727,78.39162,40,537,4527,PPL
Guvvalacheruvu,14.29529,78.75226,02,753,5241,PPL
Gutturu,14.19015,77.63403,02,754,5356,PPL
Guruzala,16.55734,79.63477,02,751,5044,PPL
Guruvajipeta,15.22717,79.40021,02,549,5136,PPL
Gurtedu,17.84721,81.94458,02,745,4886,PPL
Gurramkonda,13.78135,78.58917,02,753,5370,PPL
Gurampod,16.86759,79.11217,40,539,4657,PPL
Guntur,16.29974,80.45729,02,548,6833,PPL
Guntakal,15.17112,77.36244,02,553,5309,PPL
Gundugolanu,16.78055,81.23085,02,748,4963,PPL
Gundmal,16.89382,77.71172,40,781,4551,PPL
Gundlakonda,15.47873,77.6512,02,552,5276,PPL
Gundlabrahmeswaram,15.66667,78.75,02,755,5282,PPL
Gundipet,17.3848,78.32113,40,537,6320,PPL
Gundala,17.64583,80.93515,40,541,,PPL
Gundaid,16.92482,77.80547,40,538,4538,PPL
Gunadala,16.5203,80.66416,02,749,5010,PPL
Guduru,15.77506,77.80656,02,552,5257,PPL
Gudur,17.49174,78.82302,40,697,4629,PPL
Gudur,14.15093,79.8521,02,752,5184,PPL
Gudluru,15.07252,79.90127,02,550,5151,PPL
Gudlavalleru,16.35,81.05,02,547,5029,PPL
Gudivada,16.43547,80.99555,02,547,5021,PPL
Gudipalli,12.79275,78.28002,02,554,5426,PPL
Gudikallu,15.74411,77.47603,02,552,5254,PPL
Gudem,17.86333,82.19589,02,745,4850,PPL
Gudavalluru,14.99872,79.67726,02,550,5156,PPL
Gudali,14.01673,80.0201,02,752,5191,PPL
Griddaluru,14.2645,79.77539,02,550,5185,PPL
Govundlapalem,14.64828,80.14111,02,550,5168,PPL
Govindapuram,18.66775,84.37109,02,542,4781,PPL
Govindapalem,17.45559,82.91773,02,744,4883,PPL
Gotlagattu,15.5519,79.42012,02,549,5119,PPL
Gorantla,13.98411,77.77224,02,754,5362,PPL
Goppili,18.82289,84.35391,02,542,4774,PPL
Gopavaram,16.81807,80.96928,02,748,5002,PPL
Gopalur,16.6122,77.80728,40,538,4573,PPL
Gopala Singavaram,15.8778,77.94034,40,538,,PPL
Gopalapuram,17.1,81.51667,02,545,4951,PPL
Gooty,15.11836,77.63776,02,553,5310,PPL
Gonegandla,15.71371,77.59546,02,552,5270,PPL
Gollapudi,16.54125,80.57839,02,749,5011,PPL
Gollapalli,18.38764,78.63506,40,683,4432,PPL
Gollapalle,16.72626,80.90729,02,748,5003,PPL
Gollapalle,14.9767,78.28013,02,551,5200,PPL
Chinna Gollapalem,16.36841,81.52545,02,547,5018,PPL
Gollapalem,14.31135,79.79241,02,550,5183,PPL
Gollapalem,14.10372,79.78951,02,752,5184,PPL
Gollagudem,17.71689,80.62412,40,690,6266,PPL
Golla,14.59867,77.21101,02,553,5321,PPL
Golepalli,16.50659,77.55392,40,781,4589,PPL
Gokavaram,17.25823,81.84985,02,545,4897,PPL
Gogulapalle,15.25749,79.31518,02,549,5145,PPL
Gnanapuram,17.71667,83.28333,02,544,4866,PPL
Giddalur,15.37439,78.92609,02,549,5133,PPL
Ghut,16.11667,77.58333,40,695,4605,PPL
Ghattu,13.6602,78.33314,02,753,5391,PPL
Ghantasala,16.15,80.26667,02,751,5071,PPL
Ghanpur,17.85,79.36667,40,689,4676,PPL
Ghambiraopet,18.30787,78.57336,40,683,4433,PPL
Gattimanikonda,15.53208,78.17948,02,755,5279,PPL
Garnimitta,13.82,78.89592,02,753,5372,PPL
Garladinne,15.31313,77.97555,02,755,5294,PPL
Garladinne,14.82409,77.59852,02,553,5324,PPL
Garimenapenta,14.38137,79.46389,02,550,5175,PPL
Garbham,18.36652,83.45174,02,543,4822,PPL
Gara,18.32261,84.0687,02,542,4801,PPL
Gantikorlam,17.81128,82.80729,02,744,4857,PPL
Gannavaram,16.6,81.9,02,747,4934,PPL
Gannavaram,16.54092,80.80213,02,547,5012,PPL
Ganjivaripalle,16.03787,79.20463,02,549,5097,PPL
Gani,15.66505,78.3168,02,755,5281,PPL
Ganguvada,18.66667,84.11667,02,542,4773,PPL
Gangireddipalle,14.51771,78.4893,02,551,5222,PPL
Gangayapalle,14.55583,78.71804,02,551,5225,PPL
Gangaram,17.82354,80.20164,40,688,6253,PPL
Gangarajumadugulu,18.01332,82.5352,02,745,4848,PPL
Gangapatnam,14.52368,80.1521,02,550,5179,PPL
Gangadevepalle,14.15143,79.73393,02,550,5185,PPL
Gandhari,18.39264,78.11734,40,685,4382,PPL
Ganapavaram,16.70007,81.46297,02,748,4974,PPL
Gampalagudem,16.99819,80.52239,02,749,4996,PPL
Galivedu,14.019,78.50318,02,753,5235,PPL
Gajwel,17.84816,78.68291,40,692,4483,PPL
Gajjelakonda,15.75224,79.39167,02,549,5115,PPL
Gajapatinagaram,18.27936,83.33647,02,543,4825,PPL
Gadwal,16.23504,77.79556,40,695,4603,PPLA2
Gadigarevula,15.61936,78.43723,02,755,5281,PPL
Gadidemadugu,15.77997,78.14523,02,552,5259,PPL
Gadelagudem,17.55706,80.60747,40,690,6376,PPL
Gadekallu,15.11681,77.24462,02,553,5308,PPL
Fazlwadi,17.64113,78.12395,40,691,4492,PPL
Farrukhnagar,17.07787,78.20339,40,537,4559,PPL
Farahabad,16.26564,78.69451,40,694,4578,PPL
Fakirgudem,16.49524,80.64868,02,547,5024,PPLX
Etikoppaka,17.5,82.73333,02,744,4879,PPL
Eruru,14.16667,80.05,02,752,5190,PPL
Yerravaripallem,13.70517,79.13313,02,752,5374,PPL
Erraguntlakota,13.96219,79.27682,02,753,5248,PPL
Erraguntla,14.63853,78.53974,02,551,5223,PPL
Erragudipadu,14.61665,78.60748,02,551,5224,PPL
Erragondapalem,16.03972,79.30428,02,549,5097,PPL
Errabalem,16.4631,80.56778,02,548,5055,PPL
Erpedu,13.6923,79.59372,02,752,5377,PPL
Ennelli,17.76672,78.46843,40,535,6273,PPL
Emmiganur,15.77203,77.48345,02,552,5254,PPL
Emaluru,17.86189,80.75737,40,690,4727,PPL
Elwinpet,18.97728,83.66312,02,743,4808,PPL
Eluru,16.71311,81.10437,02,748,4966,PPLA2
Ellasiri,13.94144,80.02113,02,752,5193,PPL
Ellanuru,14.69783,78.07516,02,553,5327,PPL
Elesvaram,17.2878,82.10518,02,746,4893,PPL
Elamanchili,17.54907,82.85749,02,744,4879,PPL
Dwarapudi,16.95,81.93333,02,747,4920,PPL
Duvvuru,14.84147,78.65307,02,551,5203,PPL
Duvvam,18.26072,83.53696,02,543,4826,PPL
Duttaluru,14.8504,79.40441,02,550,5162,PPL
Durgi,16.42593,79.54041,02,751,5042,PPL
Durgarajupatnam,13.98333,80.15,02,752,5192,PPL
Dupadu,15.91684,79.36601,02,549,5099,PPL
Dummagudem,17.85117,80.88554,40,690,4729,PPL
Duggirala,16.3287,80.62931,02,548,5076,PPL
Dugarajupatnam,13.98126,80.15668,02,752,5192,PPL
Dudgaon,18.98419,78.38246,40,533,6237,PPL
Duddukuru,15.74419,80.17186,02,750,5110,PPL
Dudada,18.0049,78.89203,40,692,4462,PPL
Dubak,18.1727,78.66608,40,692,4458,PPL
Dubacherla,16.91165,81.35688,02,545,4956,PPL
Draksharama,16.7915,82.05941,02,747,4924,PPL
Dowlaiswaram,16.94714,81.78158,02,545,4907,PPL
Dosapadu,16.46724,80.95056,02,547,5022,PPL
Dornakal,17.44475,80.14905,40,688,4722,PPL
Doranala,15.90751,79.09582,02,549,5100,PPL
Dontali,14.38529,79.88927,02,550,5177,PPL
Dondaparti,17.72743,83.29944,02,544,4866,PPL
Donakonda,15.83405,79.48485,02,549,5102,PPL
Domah,17.08573,77.83415,40,698,4537,PPL
Digwal,17.6638,77.70919,40,691,4475,PPL
Diguvametta,15.39507,78.8293,02,549,5133,PPL
Dichpalli,18.58813,78.20477,40,533,4377,PPL
Dundigal,17.60802,78.41461,40,700,6316,PPL
Dhone,15.3952,77.8715,02,755,5289,PPL
Dharur,17.30971,77.77919,40,698,4531,PPL
Dharmavaram,14.41435,77.72035,02,754,5336,PPL
Dharmapuri,18.9489,79.09581,40,681,4397,PPL
Dharmajigudem,16.89449,80.99625,02,748,4945,PPL
Dharakonda,17.99751,82.12465,02,745,4850,PPL
Dhanwada,16.63739,77.65566,40,781,4572,PPL
Devatapalli,16.781,78.948,40,539,4654,PPL
Devarkonda,16.69186,78.92073,40,539,4653,PPL
Devarkadra,16.62094,77.84243,40,538,4573,PPL
Devaravemuru,14.29296,79.76168,02,550,5185,PPL
Devarapalle,17.03333,81.55,02,545,4957,PPL
Devapur,19.61215,78.45983,40,532,4309,PPL
Devanakonda,15.53791,77.55034,02,552,5276,PPL
Devadi,18.38079,84.01326,02,542,4799,PPL
Devada,18.25629,83.55896,02,543,4826,PPL
Demi,18.3251,78.21223,40,685,4389,PPL
Degapudi,14.32673,79.71214,02,550,5176,PPL
Daulatabad,17.00865,77.5657,40,698,4552,PPL
Dasareddiguda,17.39668,79.00962,40,697,4627,PPL
Darur,16.23378,77.69596,40,695,4591,PPL
Darsi,15.76978,79.67939,02,549,5114,PPL
Dargah,16.53028,80.59041,02,749,5010,PPLX
Dandinahirehalu,15.01319,76.83259,02,553,5304,PPL
Danayanicheruvu,14.08197,78.35597,02,754,5341,PPL
Dammapeta,17.27024,81.00994,40,690,4750,PPL
Damargidda,16.81942,77.50289,40,781,4553,PPL
Damarcherla,16.7297,79.63855,40,539,4663,PPL
Damalcheruvu,13.47593,79.05218,02,752,5396,PPL
Dachuru,14.38633,79.56483,02,550,5174,PPLQ
Dachepalle,16.59491,79.73642,02,751,5045,PPL
Cumbum,15.58171,79.11059,02,549,5117,PPL
Kadapa,14.47995,78.82346,02,551,5230,PPL
Coromandel,13.4533,80.30407,02,550,,PPL
Coringa,16.8,82.23333,02,746,4930,PPL
Chundi,15.16694,79.68447,02,550,5147,PPL
Chopadandi,18.57912,79.1666,40,534,4424,PPL
Chodavaram,17.82884,82.93526,02,744,4872,PPL
Rampachodavaram,17.44088,81.77558,02,745,4895,PPL
Chityal,17.2316,79.12814,40,539,4633,PPL
Chitvel,14.17204,79.33051,02,753,5245,PPL
Chittoor,13.21055,79.0956,02,554,5421,PPLA2
Chittivalasa,17.93197,83.4268,02,544,4865,PPL
Chittiguduru,16.21667,81.06667,02,547,5031,PPL
Chittavapalli,14.39397,79.71763,02,550,5176,PPL
Chirrayanam,16.51877,82.17316,02,747,4943,PPL
Chiramana,14.68528,79.72959,02,550,5165,PPL
Chirala,15.82385,80.35219,02,750,5123,PPL
Chiraghpalli,17.69505,77.48399,40,691,4474,PPL
Chipurupalle,18.31142,83.56846,02,543,4827,PPL
Chippigiri,15.22991,77.319,02,552,5291,PPL
Chinturu,17.74555,81.39475,40,541,,PPL
Chintapalli,16.80097,78.82042,40,539,4650,PPL
Chintapalle,17.87117,82.35108,02,745,4849,PPL
Chintalpalli,17.90905,79.71564,40,540,4705,PPL
Chintalapudi,17.06859,80.98356,02,748,4944,PPL
Chintaladevi,14.9768,79.64703,02,550,5156,PPL
Chintakunta,15.23858,77.15554,02,552,5273,PPL
Chintakani,18.59661,79.97952,40,687,4402,PPL
Chintaguda,19.0765,79.05078,40,684,4334,PPL
Chinnur,18.85779,79.7956,40,684,4356,PPL
Chinapallipalem,14.42935,80.1515,02,550,5180,PPL
Chinna Palipeta,18.33333,84.11667,02,542,4801,PPL
Chinnanallaballi,17.89276,80.92436,40,690,4729,PPL
Chinnamandem,13.94178,78.67901,02,753,5236,PPL
Chinnakraka,14.8518,79.84592,02,550,5157,PPL
Chinna Ganjam,15.69192,80.24117,02,750,5125,PPL
Chimidithe,14.13387,79.75169,02,752,5184,PPL
Chimata,15.49165,79.74469,02,549,5129,PPL
Chimakurti,15.58339,79.87006,02,549,5128,PPL
Chillakur,14.12818,79.86376,02,752,5190,PPL
Chilamatturu,13.84034,77.70656,02,754,5366,PPL
Chilamannuru,13.93025,79.6992,02,752,5188,PPL
Chilakalurupet,16.08987,80.16705,02,751,5070,PPL
Chikupalle,18.47151,80.48906,40,780,4723,PPL
Cherukuru,15.99448,80.37869,02,750,5108,PPL
Cherlopalle,15.2765,79.56759,02,549,5144,PPL
Cherlopalle,14.41701,77.05794,02,553,5332,PPL
Cherlopalle,13.83522,78.63394,02,753,5370,PPL
Cherla,18.07515,80.82255,40,690,4726,PPL
Cherial,17.92596,78.96942,40,692,4672,PPL
Chennur,14.15587,79.7986,02,752,5184,PPL
Chennur,14.5644,78.80165,02,551,5226,PPL
Chemudu,18.64157,83.22916,02,743,4813,PPL
Chelvai,18.20459,80.10468,40,780,4688,PPL
Chelima,15.4412,78.70216,02,755,5285,PPL
Chejerla,14.51882,79.56677,02,550,5172,PPL
Chegunta,16.47736,77.31117,40,781,6264,PPL
Chebrolu,16.19715,80.5256,02,548,5079,PPL
Chavutapalem,14.30796,79.89218,02,550,5182,PPL
Chaudepalle,13.43429,78.69132,02,554,5413,PPL
Muhammadapuram Chattram,15.56094,79.32389,02,549,5130,PPL
Chatakonda,17.55303,80.6477,40,690,6376,PPL
Chatagotla,14.38006,79.76865,02,550,5176,PPL
Charakunda,16.69163,78.70543,40,694,6293,PPL
Chapara,18.77038,84.18528,02,542,4774,PPL
Chanugondla,15.36453,77.69689,02,755,5289,PPL
Changomal,17.25722,78.0279,40,698,4541,PPL
Chandrupatla,18.54998,80.39518,40,780,4723,PPL
Chandrasekharapuram,15.18089,79.27948,02,549,5145,PPL
Chandrakal,17.03186,77.51179,40,698,4552,PPL
Chandragiri,13.58872,79.31625,02,752,5384,PPL
Chandampet,16.57847,78.87756,40,539,4652,PPL
Chandaluru,15.80259,79.59978,02,549,5114,PPL
Challapalle,16.11756,80.93139,02,547,5035,PPL
Chalkurti,16.69534,79.26893,40,539,4659,PPL
Chakicherla,15.11266,80.03659,02,550,5152,PPL
Chagaon,18.80909,79.27618,40,681,4398,PPL
Chaganam,14.20944,79.68458,02,550,5185,PPL
Chagallu,16.99282,81.6649,02,545,4959,PPL
Chagalamarri,14.96409,78.59034,02,755,5303,PPL
Buthpur,16.69988,78.05211,40,538,4574,PPL
Busikota,17.84554,82.57788,02,745,4849,PPL
Burrakayalakota,13.72939,78.35306,02,753,5367,PPL
Buravalli,18.34632,84.00973,02,542,4801,PPL
Bunaid,16.81015,77.6697,40,781,4554,PPL
Bukkapatnam,14.19947,77.80123,02,754,5345,PPL
Bugga,17.91705,80.71911,40,690,4727,PPL
Budithapalem,15.34114,79.40109,02,549,5135,PPL
Budarasingi,18.93818,84.45529,02,542,4776,PPL
Buckinghampet,16.5108,80.62871,02,749,5010,PPLX
Buchireddipalem,14.54488,79.88298,02,550,5170,PPL
Both,19.34773,78.31712,40,532,4324,PPL
Borgampad,17.64229,80.86934,40,690,4736,PPL
Borancha,17.92981,77.78042,40,691,4451,PPL
Bonangi,18.14731,83.21925,02,543,4830,PPL
Bommakal,17.01972,80.26869,40,541,4765,PPL
Bolarum,17.51734,78.51753,40,700,4521,PPL
Bodhan,18.66208,77.88581,40,533,4370,PPL
Bobbili,18.57366,83.35925,02,543,4816,PPL
Bobbarlanka,15.95,80.8845,02,750,5096,PPL
Bitragunta,14.76675,79.98312,02,550,5159,PPL
Birkur,18.46401,77.79913,40,685,4375,PPL
Biradavolu,14.34345,79.76802,02,550,5176,PPL
Bimgal,18.6992,78.4483,40,533,4364,PPL
Biknur,18.18776,78.39988,40,685,4391,PPL
Bikkavolu,16.95,82.05,02,545,4916,PPL
Bijnapalli,16.53443,78.20646,40,694,4584,PPL
Bichkunda,18.39993,77.70651,40,685,4374,PPL
Bibra,19.3,79.66667,40,699,6313,PPL
Bibipet,18.2095,78.52119,40,685,6242,PPL
Bibinagar,17.47277,78.79596,40,697,4629,PPL
Bhongir,17.51544,78.88563,40,697,4628,PPLA2
Bhogapuram,18.03246,83.49795,02,543,4840,PPL
Bhimunipatnam,17.89017,83.45203,02,544,4865,PPL
Bhimra,18.2031,77.60282,40,691,4450,PPL
Bhimavaram,16.54078,81.52322,02,546,4984,PPL
Bhimanapalli,16.95175,78.92911,40,539,4649,PPL
Bhimadolu,16.81302,81.26245,02,748,4963,PPL
Bhavanipuram,16.52437,80.59354,02,749,5010,PPLX
Bhattiprolu,16.1026,80.78074,02,750,5089,PPL
Bhakarapeta,14.41461,78.95491,02,551,5229,PPL
Bhakarapet,13.65364,79.1574,02,752,5385,PPL
Bhaisa,19.11285,77.96336,40,680,4339,PPL
Bhairi,18.36545,83.98777,02,542,4802,PPL
Bhadrachalam,17.66846,80.88887,40,690,,PPL
Betamcherla,15.45144,78.14797,02,755,5279,PPL
Bestavarapeta,15.55046,79.10127,02,549,5131,PPL
Beripeta,13.67677,80.18626,02,752,5197,PPL
Beluguppa,14.71463,77.13632,02,553,5318,PPL
Bela,19.71976,78.77148,40,532,4308,PPL
Bavanapadu,18.57099,84.35249,02,542,4790,PPL
Battulapallipadu,14.49093,79.79215,02,550,5177,PPL
Battulapalle,14.51533,77.76666,02,754,5337,PPL
Bashirabad,17.21817,77.42568,40,698,4535,PPL
Basar,18.88491,77.95319,40,680,6205,PPL
Baruva,18.88263,84.58201,02,542,4780,PPL
Bapatla,15.90422,80.46743,02,750,5093,PPL
Bantumilli,16.37199,81.272,02,547,5019,PPL
Banswada,18.37725,77.88007,40,685,4383,PPL
Banola,18.85376,78.0324,40,533,4358,PPL
Banjapalli,18.22973,77.93559,40,685,4385,PPL
Bangarupet,13.96929,79.5994,02,752,5187,PPL
Banganapalle,15.31771,78.22669,02,755,5288,PPL
Bandi Atmakuru,15.58136,78.52336,02,755,5283,PPL
Bandarupalle,16.374,80.35849,02,548,5056,PPL
Bandar Fort,16.16667,81.16667,02,547,5034,PPL
Bandamurlanka,16.45,81.96667,02,747,4940,PPL
Bamraspet,17.16462,77.73732,40,698,4550,PPL
Ballipalle,15.24908,79.47008,02,549,5136,PPL
Balkonda,18.87329,78.33561,40,533,4361,PPL
Balijipeta,18.61338,83.52831,02,743,4815,PPL
Balapanuru,14.53505,78.19578,02,551,5217,PPL
Balapalapalle,15.45806,78.10864,02,755,5279,PPL
Balanagar,16.94948,78.18307,40,538,4557,PPL
Baireddipalle,13.09262,78.61196,02,554,5423,PPL
Baipille,18.75,84.48333,02,542,4781,PPL
Bagdapalli,18.73015,79.08344,40,681,4421,PPL
Badvel,14.7451,79.06288,02,551,5211,PPL
Badgoni,18.94625,78.13586,40,533,4359,PPL
Ayirala,13.38577,78.98299,02,554,5411,PPL
Avulamanda,15.9517,79.49944,02,549,5103,PPL
Avanigadda,16.02148,80.91808,02,547,5037,PPL
Avalakonda,13.19694,79.26399,02,554,5420,PPL
Avagudem,18.36113,83.54488,02,543,4826,PPL
Attili,16.7,81.6,02,546,4973,PPL
Atmakuru,14.64521,77.35543,02,553,5322,PPL
Atmakur,18.74949,78.62127,40,681,4417,PPL
Atmakur,17.23302,79.69532,40,696,4622,PPL
Atmakur,16.33802,77.80855,40,693,4592,PPL
Atmakur,15.88109,78.58704,02,755,5265,PPL
Atmakur,14.61586,79.62613,02,550,5164,PPL
Aspari,15.47615,77.38746,02,552,5275,PPL
Asifabad,19.35851,79.28415,40,699,4319,PPLA2
Ashwaraopet,17.24711,81.13395,40,690,4749,PPL
Asanad,18.75002,79.7454,40,684,4356,PPL
Asadganj,17.67422,77.52061,40,691,6278,PPL
Aruru,13.91209,80.05302,02,752,5193,PPL
Ariman Chelka,16.26667,79.1,40,694,4578,PPL
Ardavidu,15.67692,78.96074,02,549,5116,PPL
Araku,18.33749,82.84485,02,745,4844,PPL
Appikatla,15.97483,80.50991,02,750,5093,PPL
Appanapalli,16.78053,77.86751,40,538,4569,PPL
Anumalkuduru,16.4847,80.66357,02,547,5024,PPL
Antarvedipalem,16.41667,81.78333,02,747,4939,PPL
Antarvedi,16.33251,81.7343,02,747,4939,PPL
Annavaram,17.28318,82.4075,02,746,4892,PPL
Annapareddipalle,17.37428,80.77971,40,690,6268,PPL
Ankalampadu,16.98728,81.16155,02,748,4954,PPL
Andra,18.34517,83.20523,02,543,4824,PPL
Andol,17.81458,78.07713,40,691,4479,PPL
Anantasagaram,14.57038,79.40732,02,550,5173,PPL
Anantaram,18.30705,78.93129,40,683,4436,PPL
Anantapur,14.67784,77.60813,02,553,5330,PPL
Anantamadugu,14.1412,79.72472,02,550,5185,PPL
Anamasamudrampeta,14.69128,79.67794,02,550,5165,PPL
Anakapalle,17.69134,83.00395,02,744,4871,PPL
Amur,18.79284,78.27666,40,533,4360,PPL
Amudalavalasa,18.41025,83.90295,02,542,4798,PPL
Amrabad,16.37612,78.83338,40,694,4578,PPL
Ampalam,18.36409,84.12034,02,542,4800,PPL
Ammavaripalem,14.46091,79.72624,02,550,5176,PPL
Ammapur,16.43557,77.83222,40,538,4587,PPL
Ammanabrolu,15.58016,80.14878,02,549,5126,PPL
Ammalapadu,18.63943,84.39613,02,542,4781,PPL
Ambarpet,18.4,78.51667,40,685,4380,PPL
Amarchinta,16.373,77.77465,40,693,6290,PPL
Amaravati,16.57528,80.35803,02,751,5052,PPL
Amarapuuram,14.13012,76.9776,02,754,5351,PPL
Amangal,16.84989,78.53273,40,537,4563,PPL
Amancharla,14.41563,79.85667,02,550,5177,PPL
Amalapuram,16.57868,82.00609,02,747,4941,PPL
Aluru,15.50424,80.12909,02,549,5140,PPL
Alur,17.32937,78.06866,40,537,4529,PPL
Alur,15.39259,77.22753,02,552,5274,PPL
Alturti,14.4397,79.68396,02,550,5176,PPL
Allur,14.68343,80.05412,02,550,5167,PPL
Allur,15.4451,80.11892,02,549,5140,PPL
Allapalli,17.82857,80.48068,40,690,6267,PPL
Allahdurg,17.96508,77.92741,40,535,4470,PPL
Allagadda,15.1322,78.51379,02,755,5298,PPL
Alipur,17.71667,83.3,02,544,4866,PPL
Aleru,17.6439,79.04107,40,697,4617,PPL
Albaka,18.20666,80.66845,40,780,4724,PPL
Alamuru,16.78333,81.9,02,747,4925,PPL
Alampur,15.87987,78.13352,40,695,4612,PPL
Alamanda,17.99475,83.23988,02,543,4835,PPL
Aklvidu,16.58333,81.38333,02,546,4975,PPL
Akkivaram,18.37599,84.13996,02,542,4800,PPL
Akividu,16.58225,81.38112,02,546,4975,PPL
Akawaram,16.46667,79.01667,40,694,4579,PPL
Ainavolu,15.99294,79.67007,02,751,5063,PPL
Agiripalle,16.68333,80.65,02,749,5006,PPL
Advi Devalpalli,16.6622,79.51344,40,539,6304,PPL
Aduripalli,14.44349,79.60164,02,550,5172,PPL
Adoni,15.62788,77.27495,02,552,5271,PPL
Adilabad,19.67203,78.5359,40,532,4306,PPL
Addatigala,17.47928,82.0236,02,745,4894,PPL
Addanki,15.81061,79.97338,02,750,5112,PPL
Adampur,18.18333,77.63333,40,691,4450,PPL
Achampet,16.62876,80.12055,02,751,5050,PPL
Murdanpalli,17.49365,78.04188,40,691,4491,PPL
Konapur,17.48438,78.01285,40,691,4491,PPL
Chimaidari,17.46496,78.00295,40,698,4513,PPL
Gajulagudam,17.50055,78.06904,40,537,4515,PPL
Dhobipet,17.47111,78.08583,40,537,4515,PPL
Mansanpalli,17.46151,78.05175,40,691,4491,PPL
Madireddioal,17.4525,78.00167,40,698,4514,PPL
Yellakonda,17.43911,78.03807,40,698,4514,PPL
Lingampalli,17.42634,78.02189,40,698,4514,PPL
Gangyada,17.40889,78.03361,40,698,4514,PPL
Pulapalli,17.38185,78.01671,40,698,4514,PPL
Tangadpalli,17.37405,78.05906,40,537,4529,PPL
Duddagh,17.36155,78.08284,40,537,4529,PPL
Sidiur,17.35869,78.00109,40,698,4514,PPL
Kaukuntla,17.35333,78.03583,40,537,4529,PPL
Antaram,17.32591,78.03272,40,537,4529,PPL
Meddagudam,17.30943,78.07331,40,537,4529,PPL
Khandlapalli,17.29216,78.02263,40,698,4541,PPL
Chittampalli,17.28773,78.03096,40,698,4541,PPL
Khanapur,17.28417,78.06472,40,537,4529,PPL
Channaballi,17.26988,78.09707,40,537,4529,PPL
Chevella,17.30678,78.1372,40,537,4529,PPL
Damarigidda,17.30801,78.10701,40,537,4529,PPL
Ramannaguda,17.34066,78.11124,40,537,4529,PPL
Nyalta,17.34828,78.10529,40,537,4529,PPL
Uralla,17.35698,78.13032,40,537,4529,PPL
Kottapalli,17.37511,78.11918,40,537,4515,PPL
Parweda,17.40644,78.09941,40,537,4515,PPL
Yarvaguda,17.40993,78.12684,40,537,4515,PPL
Kottaguda,17.42219,78.0924,40,537,4515,PPL
Chandippa,17.44375,78.11364,40,537,4515,PPL
Mailaram,17.50128,78.12394,40,691,6275,PPL
Bhanur,17.48986,78.17737,40,691,4494,PPL
Ghanpur,17.49869,78.22219,40,691,4494,PPL
Velimela,17.47708,78.23873,40,691,4495,PPL
Idulnagalapalli,17.46101,78.23821,40,691,4495,PPL
Tangatur,17.41285,78.17915,40,537,4515,PPL
Poddatur,17.40366,78.20079,40,537,4515,PPL
Chinna Manglaram,17.39064,78.22639,40,537,4528,PPL
Reddipalli,17.37428,78.24732,40,537,4528,PPL
Medpalli,17.37208,78.20046,40,537,4528,PPL
Collapalli,17.35999,78.16663,40,537,4529,PPL
Rawulapalli,17.35239,78.19893,40,537,4529,PPL
Elkaguda,17.35095,78.22756,40,537,4528,PPL
Kummera,17.33947,78.18026,40,537,4529,PPL
Mudimial,17.33386,78.20029,40,537,4529,PPL
Malkapur,17.3242,78.17301,40,537,4529,PPL
Talkatta,17.29772,78.20786,40,537,4528,PPL
Kankamamidi,17.30454,78.24778,40,537,4528,PPL
Palagutta,17.2875,78.17333,40,537,4529,PPL
Khandwada,17.27628,78.17782,40,537,4529,PPL
Ketreddipalli,17.27429,78.2241,40,537,4528,PPL
Gundala,17.25061,78.157,40,537,4529,PPL
Nagalpalli,17.258,78.20701,40,537,4528,PPL
Bulkapur,17.4406,78.15777,40,537,4515,PPL
Yelwarti,17.42892,78.1454,40,537,4515,PPL
Singapur,17.46982,78.12574,40,537,4515,PPL
Timmapur,17.26556,78.00111,40,698,4541,PPL
Mokila,17.42622,78.18817,40,537,4515,PPL
Mamadpalli,17.24586,78.04899,40,698,4541,PPL
Deorampalli,17.24839,78.0678,40,537,4529,PPL
Tadlapalli,17.23633,78.12435,40,537,4542,PPL
Tirmalapur,17.22248,78.06111,40,537,4542,PPL
Medalli,17.23237,78.00978,40,698,4541,PPL
Kadmur,17.22089,78.0334,40,698,4541,PPL
Kankal,17.20121,78.00758,40,698,4541,PPL
Babulgaon,17.1969,78.07405,40,537,4542,PPL
Sitarampur,17.21212,78.12995,40,537,4542,PPL
Galurguda,17.18699,78.09451,40,537,4542,PPL
Mudoemgudam,17.18004,78.12152,40,537,4542,PPL
Pudgurti,17.18876,78.0236,40,698,4541,PPL
Chintafpalli,17.17611,78.02028,40,698,4541,PPL
Chilkamari,17.17762,78.06688,40,537,4558,PPL
Nizampet,17.15804,78.00661,40,698,4541,PPL
Chinna Umetal,17.15627,78.02783,40,537,4558,PPL
Mutupur,17.15911,78.06876,40,537,4558,PPL
Lachhmapat,17.14026,78.01392,40,537,6322,PPL
Utrasualli,17.14153,78.07,40,537,4558,PPL
Mirampur,17.13283,78.11048,40,537,4542,PPL
Manmari,17.11534,78.10205,40,537,4542,PPL
Byrampalli,17.11431,78.07382,40,537,4558,PPL
Wanpalli,17.11982,78.00817,40,537,6322,PPL
Bodampahad,17.11223,78.12272,40,537,4542,PPL
Kondurg,17.09829,78.03685,40,537,4558,PPL
Tumpalli,17.0952,78.0099,40,537,4558,PPL
Mahadeopur,17.09998,78.06906,40,537,4558,PPL
Srirangapur,17.09083,78.08361,40,537,4558,PPL
Ganganguda,17.0707,78.02802,40,537,4558,PPL
Yelkicherla,17.07528,78.08389,40,537,4558,PPL
Rawiyyal,17.04567,78.00743,40,537,6322,PPL
Yedira,17.03072,78.00342,40,537,6322,PPL
Kotta Agiryal,17.0223,78.05626,40,537,4558,PPL
Kamsanpalli,17.00799,78.11775,40,537,4559,PPL
Chinchod,17.02723,78.09995,40,537,4559,PPL
Chaulpalli,17.04177,78.12036,40,537,4559,PPL
Annaram,17.023,78.18029,40,537,4559,PPL
Raikal,17.00622,78.18973,40,537,4559,PPL
Shadnagar,17.06473,78.21279,40,537,4559,PPL
Chantapalli,17.07861,78.22611,40,537,4559,PPL
Lingareddiguda,17.09068,78.22413,40,537,6321,PPL
Sardarnagar,17.09382,78.16574,40,537,4542,PPL
Nagulapalli,17.10139,78.20056,40,537,4559,PPL
Kakulur,17.10621,78.16122,40,537,4542,PPL
Idulapalli,17.12755,78.20208,40,537,6321,PPL
Nareddiguda,17.14222,78.14944,40,537,4542,PPL
Kummarguda,17.15923,78.1501,40,537,4542,PPL
Chagur,17.17592,78.22966,40,537,6321,PPL
Nagarkunta,17.18748,78.16537,40,537,4542,PPL
Bondoniguda,17.19084,78.22931,40,537,6321,PPL
Namdarkhanpet,17.19608,78.1944,40,537,4542,PPL
Potugal,17.21869,78.13477,40,537,4542,PPL
Maddur,17.21103,78.22912,40,537,4542,PPL
Chandanvelli,17.23322,78.17201,40,537,4542,PPL
Tangallapalli,17.04162,78.05219,40,537,4558,PPL
Gantlavelli,17.00127,78.24058,40,537,4559,PPL
Kammadhanam,17.02376,78.22881,40,537,4559,PPL
Solipur,17.03871,78.21102,40,537,4559,PPL
Elkatta,17.07656,78.15897,40,537,4559,PPL
Papreddyguda,17.00851,78.27178,40,537,4561,PPL
Tulanguda,17.0082,78.34292,40,537,4561,PPL
Mangalguda,17.02033,78.346,40,537,4561,PPL
Barkhanpalli,17.03222,78.3507,40,537,4561,PPL
Sangam,17.02664,78.30213,40,537,4561,PPL
Welijorla,17.03973,78.27155,40,537,4559,PPL
Siddapur,17.05657,78.35365,40,537,6321,PPL
Ellasenpet,17.02111,78.33222,40,537,4561,PPL
Buchhiguda,17.05834,78.25027,40,537,4559,PPL
Enmulanara,17.08432,78.30044,40,537,6321,PPL
Patelguda,17.10342,78.26519,40,537,6321,PPL
Pinjarla,17.10979,78.32273,40,537,6321,PPL
Nandigaon,17.11946,78.25642,40,537,6321,PPL
Rangapur,17.12127,78.29232,40,537,6321,PPL
Kotur,17.14842,78.28734,40,537,4560,PPL
Narsappaguda,17.15395,78.25267,40,537,6321,PPL
Mallapur,17.18548,78.27103,40,537,4560,PPL
Kammaguda,17.17168,78.28281,40,537,4560,PPL
Gudur,17.20682,78.27605,40,537,4543,PPL
Botuguda,17.22958,78.25909,40,537,4543,PPL
Nanajpur,17.22935,78.28923,40,537,4543,PPL
Kasaram,17.24452,78.30122,40,537,4543,PPL
Shahpur,17.2197,78.33578,40,537,4543,PPL
Gundiguda,17.227,78.35869,40,537,4543,PPL
Hamidullahnagar,17.21942,78.38728,40,537,4543,PPL
Lambadi Colony,17.20389,78.34056,40,537,4543,PPL
Palmakul,17.18677,78.30251,40,537,4543,PPL
Golur,17.17855,78.3537,40,537,4544,PPL
Bhagirathiguda,17.18,78.35806,40,537,4544,PPL
Peddatupra,17.16537,78.30892,40,537,4560,PPL
Amirpet,17.1486,78.34191,40,537,4544,PPL
Kalvakol,17.12634,78.36209,40,537,4544,PPL
Dubacherla,17.10747,78.37,40,537,4544,PPL
Subhanpur,17.1017,78.35057,40,537,4544,PPL
Akunpalli,17.08769,78.38974,40,537,4544,PPL
Chippalpalli,17.04761,78.39702,40,537,4545,PPL
Regulakunta,17.02861,78.39361,40,537,4545,PPL
Dasarlapalli,17.01062,78.47962,40,537,4545,PPL
Nendnur,17.03569,78.45085,40,537,4545,PPL
Purandala,17.06106,78.37833,40,537,4544,PPL
Dabliguda,17.04668,78.49449,40,537,4545,PPL
Kandukur,17.06464,78.48985,40,537,4545,PPL
Phulmamadi,17.06564,78.41979,40,537,4545,PPL
Tulsinagar,17.0867,78.4508,40,537,4545,PPL
Kottur,17.09228,78.46857,40,537,4545,PPL
Mansanpalli,17.13853,78.39363,40,537,4544,PPL
Tumlur,17.1285,78.46005,40,537,4544,PPL
Beraguda,17.12359,78.49693,40,537,4545,PPL
Mohbatnagar,17.15421,78.46747,40,537,4544,PPL
Siglipuram,17.15667,78.43833,40,537,4544,PPL
Gangaram,17.15786,78.42973,40,537,4544,PPL
Arsiyaguda,17.18665,78.43759,40,537,4544,PPL
Nagaram,17.18364,78.39152,40,537,4544,PPL
Golcondakata,17.2085,78.39113,40,537,4543,PPL
Mankal,17.2015,78.46819,40,537,4544,PPL
Thukkuguda,17.20979,78.47891,40,537,4544,PPL
Mamidpalli,17.25156,78.45206,40,537,4526,PPL
Anthredigudam,17.2413,78.41923,40,537,4526,PPL
Gollapalli,17.23731,78.39916,40,537,4543,PPL
Gulvagudam,17.22862,78.42149,40,537,4543,PPL
Konapalli,17.00888,78.38703,40,537,4561,PPL
Kolapadka,17.08048,78.36662,40,537,4544,PPL
Ghatpalli,17.10164,78.39455,40,537,4544,PPL
Fatimapur,17.16611,78.27806,40,537,6321,PPL
Shamsabad,17.26108,78.39588,40,537,4543,PPL
Aliguda,17.26472,78.44333,40,537,4526,PPL
Narkuda,17.25877,78.33524,40,537,4543,PPL
Dosuwada,17.26734,78.25734,40,537,4528,PPL
Amdapur,17.27775,78.2924,40,537,4528,PPL
Surangal,17.29574,78.27413,40,537,4528,PPL
Bakawaram,17.28898,78.31325,40,537,4528,PPL
Kawaguda,17.27705,78.33903,40,537,4543,PPL
Pahadisharif,17.27372,78.47303,40,537,4526,PPL
Ualapalli,17.28361,78.43639,40,537,4527,PPL
Murtazaguda,17.3106,78.28287,40,537,4528,PPL
Mohinabad,17.32667,78.27521,40,537,4528,PPL
Pedda Mangaiaram,17.33696,78.25907,40,537,4528,PPL
Chilkur,17.35018,78.28769,40,537,4528,PPL
Himayatnagar,17.34235,78.30737,40,537,4528,PPL
Kisinatpuram,17.33556,78.36722,40,537,6320,PPL
Buddlu,17.33056,78.40778,40,537,4527,PPL
Bandlaguda,17.35112,78.39118,40,537,6320,PPL
Balapur,17.31018,78.49969,40,537,4526,PPL
Pirancheru,17.35905,78.37525,40,537,6320,PPL
Faridabad,17.35917,78.29833,40,537,4528,PPL
Chandapet,17.37333,78.26111,40,537,4528,PPL
Junawada,17.40222,78.25888,40,537,4515,PPL
Wati Nagalapalli,17.41793,78.29297,40,537,6320,PPL
Gauliguda,17.4275,78.32444,40,537,6320,PPL
Nanakramguda,17.42067,78.3509,40,537,4516,PPL
Husain Sawali Dargah,17.41327,78.39141,40,537,4527,PPL
Madhapur,17.44106,78.38849,40,537,4516,PPL
Kumbarchalka,17.44611,78.33778,40,537,4516,PPL
Kothaguda,17.459,78.36513,40,537,4516,PPL
Masjidpur,17.465,78.34139,40,537,4516,PPL
Kollur,17.44387,78.25168,40,691,4495,PPL
Gopanpalli,17.45351,78.30504,40,537,4516,PPL
Talapur,17.46736,78.28445,40,691,4495,PPL
Mandmul,17.49016,78.2732,40,691,4495,PPL
Madinagud,17.49201,78.34546,40,537,4516,PPL
Kaithaiapur,17.46737,78.39999,40,700,4517,PPL
Kanaiguda,17.48728,78.4965,40,700,4521,PPL
Kapra,17.48667,78.56611,40,700,4522,PPL
Nagavaram,17.48862,78.60208,40,700,4522,PPL
Diarampalli,17.50039,78.65978,40,700,4522,PPL
Rampalli,17.4692,78.64273,40,700,4522,PPL
Nasaram,17.43028,78.55028,40,700,4524,PPL
Chengi Cherla,17.43418,78.60741,40,700,6318,PPL
Budrel,17.41992,78.58433,40,700,6318,PPL
Medpalli,17.40611,78.60444,40,700,6318,PPL
Ambarpet,17.39472,78.5175,40,536,4502,PPL
Kuntur,17.3425,78.62528,40,537,4525,PPL
Chintalkunta,17.34028,78.56667,40,537,4525,PPL
Jiladiguda,17.332,78.52553,40,537,4526,PPL
Yamjal,17.26944,78.57667,40,537,4525,PPL
Nagargul,17.27395,78.54124,40,537,6323,PPL
Manigudem,17.25358,78.59144,40,537,4525,PPL
Bahmanlapalli,17.26684,78.61735,40,537,4525,PPL
Koheda,17.28269,78.6357,40,537,6319,PPL
Tarur,17.28956,78.61421,40,537,4525,PPL
Anajpur,17.27084,78.69315,40,537,6319,PPL
Niralapalli,17.25855,78.73177,40,537,4546,PPL
Masidpur,17.28204,78.71355,40,537,6319,PPL
Pilgamma,17.28111,78.70444,40,537,6319,PPL
Batasingaram,17.30185,78.7267,40,537,6319,PPL
Abdullapur,17.32021,78.69365,40,537,6319,PPL
Lashkarguda,17.29585,78.69054,40,537,6319,PPL
Amjapur,17.30348,78.58823,40,537,4525,PPL
Ambarpet Kalan,17.31941,78.63749,40,537,4525,PPL
Hayatnagar,17.32844,78.60627,40,537,4525,PPL
Guramguda,17.29472,78.56611,40,537,6323,PPL
Kawarpalli,17.33456,78.69631,40,537,6319,PPL
Tardmatipeta,17.35679,78.67925,40,537,6319,PPL
Kotlapuram,17.37778,78.64083,40,537,6319,PPL
Gorelli,17.37501,78.67171,40,537,6319,PPL
Golegal,17.37519,78.73856,40,697,4630,PPL
Rairal Kalan,17.38883,78.71844,40,537,6319,PPL
Mutialguda,17.38815,78.6309,40,700,4523,PPL
Telugudam,17.40449,78.66788,40,700,4523,PPL
Adilabad,17.4175,78.70972,40,700,4523,PPL
Masiguda,17.42028,78.7175,40,700,4523,PPL
Anojiguda,17.43358,78.65595,40,700,4523,PPL
Ghatkesar,17.45081,78.68366,40,700,4523,PPL
Arvapuram,17.46027,78.7366,40,697,4629,PPL
Kondapuram,17.46786,78.69142,40,700,4523,PPL
Nemargomla,17.48086,78.7306,40,697,4629,PPL
Jamilapet,17.49407,78.72579,40,697,4629,PPL
Kondamadlu,17.48909,78.7696,40,697,4629,PPL
Bomaipalli,17.48809,78.8634,40,697,4628,PPL
Rahim Khanguda,17.45175,78.79463,40,697,4629,PPL
Somawaram,17.43479,78.76456,40,697,4629,PPL
Bamanlapalli,17.43808,78.84772,40,697,4629,PPL
Bhattuguda,17.42041,78.83808,40,697,4629,PPL
Gurraldandi,17.41641,78.85395,40,697,4629,PPL
Ankral,17.4125,78.7625,40,697,4629,PPL
Rawalpalli Kalan,17.40699,78.83518,40,697,4630,PPL
Jolur,17.38702,78.7853,40,697,4630,PPL
Ghouskunda,17.37611,78.83583,40,697,4630,PPL
Indral,17.38876,78.87376,40,697,4630,PPL
Jagatpalli,17.3585,78.76607,40,697,4630,PPL
Pochampalli,17.34917,78.82278,40,697,4630,PPL
Chintalbhawi,17.34278,78.77639,40,697,4630,PPL
Turkaguda,17.32262,78.80835,40,697,4630,PPL
Antammagudam,17.28674,78.83801,40,697,4630,PPL
Yellargiri,17.2675,78.84083,40,697,4631,PPL
Lakkaram,17.26693,78.8811,40,697,4631,PPL
Lingojiguda,17.26023,78.93458,40,697,4631,PPL
Sankanipalli,17.26139,78.98556,40,539,4633,PPL
Dotiguda,17.30182,78.84854,40,697,4630,PPL
Chinna Kondur,17.29785,78.90127,40,697,4631,PPL
Pedda Kondur,17.31858,78.90368,40,697,4631,PPL
Jiyakeswaram,17.31274,78.96823,40,697,4631,PPL
Chalkapalli,17.31417,78.86611,40,697,4630,PPL
Kanmukal,17.33568,78.84856,40,697,4630,PPL
Dantur,17.35004,78.86534,40,697,4630,PPL
Warkatpalli,17.34389,78.94472,40,697,4627,PPL
Neronbhavi,17.29083,78.99833,40,697,4632,PPL
Gokaram,17.34303,78.97431,40,697,4627,PPL
Sangam,17.36222,78.93278,40,697,4627,PPL
Poddatur,17.36297,78.95965,40,697,4627,PPL
Mahamdapur,17.38241,78.9825,40,697,4627,PPL
Suraipalli,17.38316,78.90865,40,697,4628,PPL
Bollepalli,17.40845,78.92692,40,697,4628,PPL
Naptolguda,17.4025,78.9625,40,697,4627,PPL
Edularepaku,17.41878,79.00033,40,697,4627,PPL
Nagreddipalli,17.43016,78.9379,40,697,4628,PPL
Kanchanpalli,17.44439,78.99744,40,697,4627,PPL
Ragipadu,17.44814,78.88467,40,697,4629,PPL
Anajpur,17.45897,78.90315,40,697,4628,PPL
Erampalli,17.46049,78.9542,40,697,4628,PPL
Takapuram,17.48255,78.92622,40,697,4628,PPL
Banda Somaram,17.48978,78.98464,40,697,4628,PPL
Ghousnagar,17.47698,78.96728,40,697,4628,PPL
Mailaram,17.23082,78.76039,40,537,4546,PPL
Pipalpahad,17.22188,78.84803,40,697,4631,PPL
Allahpur,17.21271,78.83061,40,697,4631,PPL
Devalamma Nagaram,17.24361,78.84722,40,697,4631,PPL
Tangedupalli,17.23639,78.89444,40,697,4631,PPL
Damera,17.22922,78.88537,40,697,4631,PPL
Chintalaguda,17.21931,78.90453,40,697,4631,PPL
Guddi Malkapur,17.2063,78.89634,40,697,4648,PPL
Kotlapur,17.19617,78.91438,40,697,4648,PPL
Yenagandi Tanda,17.1975,78.84833,40,697,4631,PPL
Tippaigudam,17.1775,78.77889,40,537,4547,PPL
Chimirala,17.17333,78.90667,40,697,4648,PPL
Sarwel,17.16175,78.9296,40,697,4648,PPL
Arutla,17.13528,78.75833,40,537,4547,PPL
Patelcheruvu,17.13028,78.79861,40,537,4547,PPL
Kottaguda,17.13608,78.89879,40,697,4648,PPL
Chinnareddiguda,17.09256,78.7767,40,537,4547,PPL
Bandalemur,17.09222,78.79694,40,537,4547,PPL
Yallamma Tanda,17.06972,78.75361,40,537,4547,PPL
Bodakonda,17.06094,78.77641,40,537,4547,PPL
Paralagadda Tanda,17.09028,78.85,40,697,4648,PPL
Chillapur,17.07917,78.88528,40,697,4648,PPL
Lachmagudam,17.06833,78.89889,40,697,4648,PPL
Wailapall,17.09595,78.89655,40,697,4648,PPL
Jangaon,17.11213,78.89871,40,697,4648,PPL
Areguda,17.10107,78.89659,40,697,4648,PPL
Elgapalli,17.00312,78.84359,40,539,4649,PPL
Indurti,17.00548,78.90538,40,539,4649,PPL
Nirmata,17.00629,78.98245,40,539,4655,PPL
Namapuram,17.02458,78.92813,40,539,4649,PPL
Sherigudam,17.0357,78.95937,40,539,4655,PPL
Teratpalli,17.05335,78.93954,40,539,4655,PPL
Kammagudam,17.05861,78.97,40,539,4655,PPL
Kondapur,17.05503,78.99026,40,539,4655,PPL
Kudasapalli,17.03139,78.84167,40,539,4649,PPL
Loyapalli,17.04074,78.83212,40,537,4547,PPL
Kalvakuntla,17.07583,78.9875,40,539,4647,PPL
Ghattupal,17.0725,78.92389,40,539,4655,PPL
Yelmakanna,17.09,78.95756,40,539,4647,PPL
Parmataguda,17.11333,78.995,40,539,4647,PPL
Chalmeda,17.12222,78.96472,40,539,4647,PPL
Kotlaram,17.13833,78.99083,40,539,4647,PPL
Lingamaniguda,17.13176,78.9464,40,539,4647,PPL
Puttapaka,17.11295,78.93278,40,697,4648,PPL
Gujja,17.14585,78.96681,40,697,4648,PPL
Malaneddiguda,17.16389,78.95583,40,697,4648,PPL
Yepur,17.20052,78.9914,40,539,4633,PPL
Pantang,17.24729,78.95822,40,697,4631,PPL
Antampet,17.0336,78.88734,40,539,4649,PPL
Adibatla,17.23063,78.54355,40,537,4546,PPL
Rawiral,17.22028,78.51028,40,537,4544,PPL
Kongara,17.21417,78.51222,40,537,4544,PPL
Jannaiguda,17.19758,78.50917,40,537,4544,PPL
Kongarkala,17.19889,78.55102,40,537,4546,PPL
Bongulur,17.22956,78.57775,40,537,4546,PPL
Mangalpalli,17.21083,78.59306,40,537,4546,PPL
Upparguda,17.18971,78.61566,40,537,4546,PPL
Saraswatiguda,17.17111,78.49861,40,537,4544,PPL
Chenduguda,17.18359,78.55638,40,537,4546,PPL
Pocharam,17.1763,78.60224,40,537,4546,PPL
Lemur,17.14152,78.5166,40,537,4545,PPL
Timmapur,17.12927,78.55715,40,537,4545,PPL
Yeliminedu,17.14611,78.59389,40,537,4546,PPL
Kapaphad,17.14331,78.61694,40,537,4546,PPL
Rachlur,17.11611,78.54056,40,537,4545,PPL
Begampet,17.11187,78.55404,40,537,4545,PPL
Tule Kalan,17.10167,78.63,40,537,4546,PPL
Chinatundla,17.08417,78.61278,40,537,4548,PPL
Gumadavelli,17.09333,78.58,40,537,4545,PPL
Thimmayapalli,17.06806,78.51833,40,537,4545,PPL
Mailawaram,17.06722,78.57389,40,537,4545,PPL
Mir Khanpet,17.04689,78.57465,40,537,4545,PPL
Kurumidda,17.03313,78.57416,40,537,4548,PPL
Mucherla,17.01528,78.51667,40,537,4545,PPL
Utlapalli,17.01446,78.52714,40,537,4545,PPL
Tatiparti,17.00279,78.59597,40,537,4548,PPL
Pillipalli,17.00471,78.60431,40,537,4548,PPL
Malkeshguda,17.015,78.65667,40,537,4548,PPL
Nandiwanparti,17.04403,78.63389,40,537,4548,PPL
Yacharam,17.0448,78.66549,40,537,4548,PPL
Gaurelli,17.03667,78.70337,40,537,4548,PPL
Chintapatla,17.01337,78.7091,40,537,4548,PPL
Datpalli,17.05667,78.72667,40,537,4547,PPL
Chided,17.06978,78.71573,40,537,4547,PPL
Chaudharpalli,17.0634,78.65266,40,537,4548,PPL
Gungal,17.10822,78.67537,40,537,4548,PPL
Japal,17.12009,78.71843,40,537,4547,PPL
Kagazgutta,17.13222,78.68972,40,537,4547,PPL
Aghapalli,17.13579,78.67316,40,537,4547,PPL
Nomul,17.16618,78.68843,40,537,4547,PPL
Manchal,17.16072,78.7205,40,537,4547,PPL
Chittapuram,17.17069,78.74339,40,537,4547,PPL
Raipol,17.205,78.7147,40,537,4546,PPL
Mukunuru,17.20616,78.7505,40,537,4546,PPL
Yengalgudam,17.2175,78.70667,40,537,4546,PPL
Polkampalli,17.22416,78.70844,40,537,4546,PPL
Naganpalli,17.2176,78.68976,40,537,4546,PPL
Ramdaspalli,17.23583,78.63,40,537,4546,PPL
Seriguda,17.21297,78.62241,40,537,4546,PPL
Madhapuram,17.12854,78.58167,40,537,4545,PPL
Nalwelli,17.00333,78.73111,40,537,4548,PPL
Medpalli Nakkerta,17.00333,78.65444,40,537,4548,PPL
Aregudam,17.21566,78.95948,40,697,4631,PPL
Madharam,17.4125,78.75083,40,700,4523,PPL
Pidikiryal,17.05164,78.1647,40,537,4559,PPL
Mallapur,17.44472,78.57194,40,700,4524,PPL
Charlapalli,17.46538,78.61109,40,700,6318,PPL
Rayarpet,17.49267,78.71695,40,697,4629,PPL
Godamkunta,17.49122,78.6478,40,700,4522,PPL
Achhayyapalli,17.70893,78.57529,40,692,4486,PPL
Achnapalli,17.99359,78.08035,40,535,4469,PPL
Adiyi Masjid,17.70238,78.67887,40,692,4486,PPL
Agrahar,17.79213,78.51001,40,535,4482,PPL
Ahmadguda,17.50127,78.62376,40,700,4522,PPL
Ahmadipur,17.92601,78.72026,40,692,4483,PPL
Aiiamari,17.82312,78.11065,40,535,6274,PPL
Akaram,17.82226,78.73923,40,692,4483,PPL
Akharjapet,17.64396,78.54504,40,700,4519,PPL
Aliabad,17.62199,78.59841,40,700,4520,PPL
Alirajapet,17.78935,78.77984,40,692,4484,PPL
Almaipet,17.7792,78.09478,40,691,4479,PPL
Alur,17.54807,78.08079,40,691,6275,PPL
Ambarpet,17.77796,78.57034,40,692,4485,PPL
Amsanpalli,17.94276,78.23936,40,535,4468,PPL
Anajpur,17.94894,78.65244,40,692,6283,PPL
Anantagiripalli,17.99863,78.74822,40,692,4463,PPL
Anantaram,17.5146,78.8451,40,697,4628,PPL
Anantsagar,17.6864,78.62377,40,692,4486,PPL
Angripet,17.90306,78.3725,40,535,4481,PPL
Ankraddipalli,17.5628,78.68537,40,700,4522,PPL
Ankreddipalli,18.00066,78.91959,40,692,4462,PPL
Annasagar,17.84272,78.79507,40,692,4484,PPL
Antaigudam,17.86074,78.83827,40,692,4484,PPL
Anwaram,17.63297,78.37953,40,691,6277,PPL
Aratla,17.62926,78.19025,40,691,6275,PPL
Arkalguda,17.58972,78.52,40,700,4519,PPL
Attalli,17.64908,78.48965,40,700,4519,PPL
Austmapur,17.58778,78.84611,40,697,4614,PPL
Avancha,17.71083,78.24417,40,535,4488,PPL
Babaipalli,17.88666,78.8167,40,692,4462,PPL
Bachnaipalli,17.88548,78.31293,40,535,4481,PPL
Badahapur,17.53056,78.54583,40,700,4521,PPL
Bade Shahguda,17.50061,78.70455,40,700,4522,PPL
Bagiratpalli,17.94639,78.39,40,535,4467,PPL
Bahadurpalli,17.55874,78.43819,40,700,6316,PPL
Balimpur,17.73946,78.67724,40,692,4486,PPL
Bamanpalli,17.79906,78.3101,40,535,4488,PPL
Baridpur,17.9329,78.00471,40,535,4469,PPL
Basarampel,17.92028,78.14083,40,535,4480,PPL
Baswapur,17.69819,78.5421,40,692,4486,PPL
Baswapur,17.56339,78.89399,40,697,4628,PPL
Bayaram,17.88206,78.67372,40,692,4483,PPL
Begampet,17.6234,78.22444,40,691,6275,PPL
Begampet,17.85011,78.56855,40,692,6283,PPL
Begampett,17.70751,78.88861,40,697,4615,PPL
Bendgai,17.77077,78.96604,40,697,4615,PPL
Biatul,17.61286,78.19301,40,691,6275,PPL
Bichgaon,17.92086,78.67482,40,692,4483,PPL
Biramguda,17.51736,78.3009,40,691,4495,PPL
Bodupatia,17.67365,78.16715,40,691,4489,PPL
Bokaiguda,17.64329,78.18325,40,691,4489,PPL
Bomaram,17.89136,78.45662,40,535,7190,PPL
Bontapalli,17.66237,78.36396,40,691,6277,PPL
Bopapur,17.51694,78.57333,40,700,4521,PPL
Boragpalli,17.88833,78.7375,40,692,4483,PPL
Brahmanguda,17.76028,78.18306,40,691,4489,PPL
Brahmarapet,17.56136,78.39915,40,700,6316,PPL
Chandampet,17.96885,78.42292,40,535,4467,PPL
Chandapur,17.66767,78.1967,40,691,4489,PPL
Chandi,17.7844,78.39076,40,535,4487,PPL
Chandur,17.87455,78.10017,40,535,6274,PPL
Chandupatla,17.50447,78.98068,40,697,4628,PPL
Chapalturti,17.7715,78.22482,40,535,4488,PPL
Chaptkur,17.74979,78.09045,40,691,7188,PPL
Charlapalli,17.87318,78.36644,40,535,4481,PPL
Chatlapalli,17.84513,78.85702,40,692,4484,PPL
Chaudarpalli,17.78854,78.63403,40,692,4485,PPL
Chaudharpalli,17.582,78.80049,40,697,4613,PPL
Cheparti,17.78222,78.73472,40,692,6282,PPL
Cherial,17.55254,78.13107,40,691,6275,PPL
Cherial,17.51528,78.62833,40,700,4522,PPL
Cheropalli,17.97972,78.0775,40,535,4469,PPL
Chikatmamidi,17.59946,78.74932,40,697,4613,PPL
Chilapchad,17.87056,78.12041,40,535,6274,PPL
Chillaguda,17.51991,78.08958,40,691,6275,PPL
Chillasagar,17.68722,78.63583,40,692,4486,PPL
Chillur,17.68152,78.92615,40,697,4615,PPL
Chintakunta,17.88083,78.06694,40,691,4479,PPL
Chintalcheru,17.64926,78.23691,40,691,4489,PPL
Chintalkot,17.87488,78.96392,40,692,4672,PPL
Chitial,17.98902,78.9578,40,692,4672,PPL
Chitkul,17.89567,78.0944,40,535,6274,PPL
Chitkul,17.55867,78.22257,40,691,4494,PPL
Chitrial,17.98329,78.10822,40,535,4455,PPL
Dacharam,17.6741,78.40959,40,691,6277,PPL
Dadiapalli,17.90721,78.01238,40,535,4469,PPL
Dakur,17.8285,78.0302,40,691,4479,PPL
Dakuntapalli,17.79622,78.94579,40,689,4674,PPL
Dammaiguda,17.50314,78.58986,40,700,4522,PPL
Damokpalli,17.98035,78.83934,40,692,4462,PPL
Damrancha,17.94173,78.30656,40,535,4481,PPL
Dandanpalli,17.87402,78.43278,40,535,4482,PPL
Daolapalli,17.92497,78.17212,40,535,4480,PPL
Dasnalkunta,17.9181,78.47105,40,535,7190,PPL
Dataipalli,17.65758,78.88412,40,697,4614,PPL
Datarpalli,17.59424,78.89762,40,697,4616,PPL
Datarpalli,17.87599,78.49962,40,535,4482,PPL
Daulapur,17.7726,78.8373,40,692,4484,PPL
Daulatabad,17.71255,78.20822,40,691,4489,PPL
Daulatabad,17.98963,78.56979,40,692,4465,PPL
Dawalapur,17.7296,78.20962,40,691,4489,PPL
Dayelli,17.81918,78.4661,40,535,6273,PPL
Dhanpalli,17.92019,78.3917,40,535,4467,PPL
Dharmakunta,17.70725,78.75404,40,692,6282,PPL
Dharmaram,17.93387,78.04524,40,535,4469,PPL
Dharmaram,17.62731,78.80134,40,697,4614,PPL
Dilalpur,17.9388,78.67958,40,692,4483,PPL
Dipampalli,17.97394,78.56268,40,692,4465,PPL
Dulapalli,17.54774,78.46862,40,700,4519,PPL
Donti,17.81494,78.41653,40,535,4487,PPL
Ektaraliguda,17.57611,78.53833,40,700,4519,PPL
Ellampet,17.68332,78.48989,40,700,4519,PPL
Erraraddipalli,17.712,78.83019,40,697,4614,PPL
Esojipet,17.70177,78.03189,40,691,4478,PPL
Fakirbanda,17.76495,78.44067,40,535,6273,PPL
Famalparti,17.79121,78.69433,40,692,6282,PPL
Fyzabad,17.84377,78.12089,40,535,6274,PPL
Ganapur,17.62654,78.53461,40,700,4519,PPL
Ganapuram,17.80667,78.50359,40,535,4482,PPL
Gandamarla,17.72661,78.85851,40,697,4614,PPL
Gandlamasnur,17.64993,78.18431,40,691,4489,PPL
Gangapur,17.8305,78.99201,40,689,4674,PPL
Gangasanpalli,17.5691,78.92156,40,697,4616,PPL
Gangulur,17.68982,78.0543,40,691,4478,PPL
Gantapur,17.884,78.13193,40,535,4480,PPL
Gauraipalli,17.94723,78.9036,40,692,6284,PPL
Gauraram,17.77407,78.65263,40,692,4485,PPL
Gauripalli,17.66864,78.94795,40,697,4616,PPL
Ghanpur,17.97198,78.16136,40,535,4468,PPL
Giripalli,17.87047,78.62874,40,692,4483,PPL
Gollapalli,17.51111,78.03682,40,691,4491,PPL
Gollapalli,17.79235,78.29939,40,535,4488,PPL
Gollapalli,17.80404,78.81823,40,692,4484,PPL
Golpalli,17.98699,78.37594,40,535,4467,PPL
Gomaram,17.74552,78.39765,40,535,4487,PPL
Gumardalla,17.68261,78.368,40,691,6277,PPL
Gomasipet,17.55361,78.56556,40,700,4520,PPL
Gondapur,17.68835,78.78695,40,697,4614,PPL
Gopalpur,17.67244,78.75492,40,697,4614,PPL
Goplaram,17.55165,78.0426,40,691,4491,PPL
Govindrajpalli,17.78529,78.1616,40,691,4489,PPL
Gujgatiapalli,17.95194,78.53951,40,692,4465,PPL
Gundlapalli,17.5762,78.94532,40,697,4616,PPL
Guntapalli,17.52237,78.05767,40,691,4491,PPL
Gurannapet,17.87972,78.85639,40,692,6284,PPL
Gurjikunta,17.95806,78.96361,40,692,4672,PPL
Hakimet,17.90837,78.41194,40,535,7190,PPL
Hanmapur,17.53745,78.85105,40,697,4628,PPL
Hardaspur,17.53019,78.0044,40,691,4491,PPL
Hastalpur,17.88888,78.4107,40,535,4481,PPL
Ibrahimpur,17.68884,78.87263,40,697,4614,PPL
Ibrahimabad,17.79596,78.18015,40,535,4488,PPL
Indarkan,17.52406,78.14947,40,691,6275,PPL
Indurparial,17.92481,78.56336,40,692,4465,PPL
Indrasham,17.56667,78.26111,40,691,4494,PPL
Iredupalli,17.70932,78.43869,40,691,6277,PPL
Irranapet,17.87001,78.99114,40,692,4672,PPL
Islampur,17.87284,78.48193,40,535,4482,PPL
Ismail Khanpet,17.62715,78.15781,40,691,4492,PPL
Istraopet,17.87551,78.32285,40,535,4481,PPL
Itkapalli,17.79893,78.99498,40,689,4674,PPL
Itkial,17.76508,78.77456,40,692,4484,PPL
Ittigola,17.78083,78.02433,40,691,4478,PPL
Iynapur,17.90572,78.87682,40,692,6284,PPL
Jidpalli,17.74329,78.47104,40,535,6273,PPL
Jabbapur,17.81595,78.61713,40,692,4485,PPL
Jagdeopur,17.76862,78.80918,40,692,4484,PPL
Jahurabad,17.86194,78.50889,40,535,4482,PPL
Jala,17.77556,78.91389,40,697,4615,PPL
Jalalpur,17.59774,78.71565,40,697,4613,PPL
Jaligaon,17.87259,78.65821,40,692,4483,PPL
Jangamguda,17.62461,78.62463,40,700,6671,PPL
Jangampalli,17.61163,78.8735,40,697,4616,PPL
Jangampalli,18.00194,78.27005,40,535,4456,PPL
Jangrai,17.95685,78.38044,40,535,4467,PPL
Jagampet,17.82669,78.15268,40,535,6274,PPL
Jayapalli,17.50601,78.73458,40,697,4629,PPL
Jialla,17.85698,78.92762,40,689,4674,PPL
Jinapalli,17.50379,78.79648,40,697,4629,PPL
Jinnawaram,17.63179,78.33303,40,691,4493,PPL
Joikal,17.5099,78.10741,40,691,6275,PPL
Kadergu,17.90861,78.93917,40,692,4672,PPL
Kadkandla,17.86468,78.76107,40,692,4483,PPL
Kaisaram,17.65318,78.99009,40,697,4616,PPL
Kaisaram,17.63503,78.65514,40,700,6671,PPL
Kalabgur,17.64555,78.06552,40,691,4492,PPL
Kalgur,17.95742,78.7077,40,692,4483,PPL
Kallakal,17.71335,78.48089,40,535,6273,PPL
Kalvapalli,17.69561,78.93914,40,697,4615,PPL
Kanchanpalli,17.90187,78.25342,40,535,4480,PPL
Kandi,17.58029,78.10888,40,691,6275,PPL
Kandukur,17.59972,78.98639,40,697,4616,PPL
Kangod,17.94787,78.27922,40,535,4481,PPL
Kanjerla Buzurg,17.59702,78.23901,40,691,4494,PPL
Kanjerla Khurd,17.60686,78.24278,40,691,4494,PPL
Kannai,17.81668,78.95534,40,689,4674,PPL
Kantanpalli,17.85879,78.42492,40,535,4482,PPL
Kanwaram,17.87676,78.19387,40,535,4480,PPL
Karjarla Khurd,17.62917,78.24583,40,691,4493,PPL
Karukapatla,17.68206,78.72894,40,692,6282,PPL
Kasal,17.71064,78.17316,40,691,4489,PPL
Kasaram,17.50511,78.16846,40,691,4494,PPL
Kasareddipalli,17.51168,78.27466,40,691,4495,PPL
Kaudpalli,17.90046,78.20694,40,535,4480,PPL
Kaulampet,17.57805,78.1421,40,691,6275,PPL
Kauripalli,17.99806,78.36639,40,535,4467,PPL
Kazipalli,17.5699,78.34782,40,691,4493,PPL
Kazipur,17.55688,78.11218,40,691,6275,PPL
Keswapur,17.83857,78.93411,40,689,4674,PPL
Kishtaipalli,17.59221,78.35792,40,691,4493,PPL
Kishtapur,17.63002,78.50585,40,700,4519,PPL
Kisara,17.5225,78.66778,40,700,4522,PPL
Kishtapur,17.84222,78.50917,40,535,4482,PPL
Kishtapur,17.96889,78.71972,40,692,4463,PPL
Kishtareddipalli,17.84115,78.32514,40,535,4487,PPL
Kodekal,17.80389,78.00635,40,691,4479,PPL
Kodur,17.70846,78.0203,40,691,4478,PPL
Kukatpalli,17.91026,78.15555,40,535,4480,PPL
Kokunda,17.72246,78.54188,40,692,4486,PPL
Koltur,17.65807,78.63824,40,700,6671,PPL
Komarweli,17.93556,78.89222,40,692,6284,PPL
Komathanda,17.83566,78.6361,40,692,4483,PPL
Kompalli,17.54499,78.48836,40,700,6316,PPL
Konapur,17.94662,78.0774,40,535,4468,PPL
Konapur,17.95688,78.57523,40,692,4465,PPL
Kondapur,17.55892,78.01326,40,691,4491,PPL
Konur,17.53285,78.9727,40,697,4628,PPL
Konyala,17.76723,78.13391,40,691,4489,PPL
Korampalli,17.95077,78.06105,40,535,4469,PPL
Korpak,17.97956,78.14035,40,535,4455,PPL
Korpol,17.71402,78.11916,40,691,7188,PPL
Korwaram,17.77281,78.92791,40,697,4615,PPL
Kottaguda,17.65469,78.25894,40,691,4489,PPL
Kottal,17.68918,78.70192,40,692,4486,PPL
Kottapeta,17.82049,78.33016,40,535,4487,PPL
Krishnareddipet,17.54928,78.29688,40,691,6276,PPL
Kulsaram,17.9558,78.19816,40,535,4468,PPL
Kundapak,17.9731,78.85896,40,692,4462,PPL
Kundapur,17.71043,78.29624,40,535,4488,PPL
Kuknur,17.9201,78.323,40,535,4481,PPL
Kusang,17.89833,78.03667,40,535,4469,PPL
Kuttapalli,17.73588,78.35594,40,691,6277,PPL
Kuttapalli,17.91971,78.62879,40,692,6283,PPL
Lachhmapalli,17.71747,78.59852,40,692,4486,PPL
Lachhmapur,17.98435,78.71173,40,692,4463,PPL
Lachhmapur,17.66318,78.70064,40,700,6671,PPL
Lakdaram,17.58408,78.20106,40,691,4494,PPL
Lakhadaram,17.91149,78.83452,40,692,4462,PPL
Lakshmisagar,17.75665,78.04204,40,691,4478,PPL
Lingainpalli,17.9182,78.26491,40,535,4481,PPL
Lingampalli,17.82777,78.92635,40,689,4674,PPL
Lingapur,17.7932,78.1422,40,691,4489,PPL
Lingapur,17.98385,78.65853,40,692,4463,PPL
Lingapuram,17.78206,78.29909,40,535,4488,PPL
Machanpalli,17.5675,78.78,40,697,4613,PPL
Madhapur,17.63132,78.77189,40,697,4614,PPL
Madhwaram,17.58591,78.31233,40,691,6276,PPL
Madhwaram,17.80324,78.57593,40,692,4485,PPL
Maduchantapalli,17.65018,78.68776,40,700,6671,PPL
Madur,17.69388,78.28103,40,535,4488,PPL
Maiiaram,17.80204,78.6295,40,692,4485,PPL
Mailaram,17.54508,78.79963,40,697,4613,PPL
Maisaram,17.55778,78.36306,40,691,4493,PPL
Makarajpet,17.94993,78.51996,40,535,4466,PPL
Makhdumpur,17.80527,78.40891,40,535,4487,PPL
Malkapet,17.63222,78.60806,40,700,4520,PPL
Malkapur,17.86822,78.54202,40,535,4482,PPL
Malkaram,17.53284,78.58564,40,700,4520,PPL
Mallapalli,17.55429,78.0538,40,691,4491,PPL
Mallapur,17.63139,78.91083,40,697,4616,PPL
Mambapur,17.68867,78.35287,40,691,6277,PPL
Mamdala,17.74368,78.69633,40,692,4486,PPL
Mamdepalli,17.59105,78.13619,40,691,6275,PPL
Manirabad,17.59885,78.51805,40,700,4519,PPL
Manapalli,17.88516,78.28349,40,535,4481,PPL
Mandapalli,17.92759,78.80471,40,692,4462,PPL
Manewar Jalaipur,17.89537,78.3048,40,535,4481,PPL
Mangalparti,17.87314,78.30528,40,535,4481,PPL
Mangampet,17.64143,78.31397,40,691,4493,PPL
Mangol,17.90946,78.78696,40,692,4462,PPL
Mantur,17.97369,78.67408,40,692,6283,PPL
Mantur,17.80314,78.26311,40,535,4488,PPL
Mari Manchal,17.97763,78.92401,40,692,6284,PPL
Marreddipalli,17.775,78.58833,40,692,4485,PPL
Masanpalli,17.82806,78.59917,40,692,4485,PPL
Masaipet,17.63525,78.96517,40,697,4616,PPL
Masreddipalli,17.55464,78.75796,40,697,4613,PPL
Mehtarpalli,17.53674,78.82496,40,697,4613,PPL
Melur,17.8981,78.40204,40,535,4481,PPL
Minajipet,17.76905,78.54723,40,692,4485,PPL
Minpur,17.72346,78.00577,40,691,4478,PPL
Miryal,17.56586,78.80939,40,697,4613,PPL
Mulug,17.74256,78.62925,40,692,4486,PPL
Mubarakpur,17.65525,78.03302,40,691,4490,PPL
Mubaraspur,17.96401,78.60537,40,692,4465,PPL
Mudimanik,17.76713,78.00667,40,691,4478,PPL
Muhammadnagar,17.87352,78.19659,40,535,4480,PPL
Mulkalpalli,17.63526,78.82987,40,697,4614,PPL
Munigadpa,17.81494,78.81948,40,692,4484,PPL
Muppireddipalli,17.73391,78.49044,40,535,6273,PPL
Mustial,17.89615,78.99765,40,692,4672,PPL
Mutraspalli,17.82539,78.6844,40,692,4483,PPL
Muttargi,17.54096,78.22715,40,691,4494,PPL
Nacharam,17.82264,78.53689,40,692,4485,PPL
Nagalapalli,17.75195,78.21522,40,535,4488,PPL
Nagawaram,17.65942,78.28137,40,691,4489,PPL
Nagireddipalli,17.84339,78.96623,40,689,4674,PPL
Nagaldeopalli,17.77785,78.18333,40,691,4489,PPL
Nagwanpalli,17.52647,78.77232,40,697,4613,PPL
Nain Jalalpur,17.94611,78.25972,40,535,4468,PPL
Nallapalli,17.72218,78.35783,40,691,6277,PPL
Namle,17.72855,78.94739,40,697,4615,PPL
Nandigaon,17.50719,78.19974,40,691,4494,PPL
Narayanpur,17.76664,78.29261,40,535,4488,PPL
Narsampalli,17.71034,78.66542,40,692,4486,PPL
Narsapur,17.73736,78.28049,40,535,4488,PPL
Natnayapalli,17.68443,78.29479,40,535,4488,PPL
Nawaper,17.73694,78.14953,40,691,4489,PPL
Nawapet,17.72229,78.39572,40,535,4487,PPL
Nintur,17.81449,78.59907,40,692,4485,PPL
Nizampet,17.51789,78.38282,40,700,6315,PPL
Nizampur,17.67918,78.00347,40,691,4490,PPL
Nutalkal,17.68261,78.44231,40,700,4519,PPL
Osirikapalli,17.82043,78.39652,40,535,4487,PPL
Piriapalli,17.73977,78.80954,40,692,4484,PPL
Pirohed,17.90861,78.70472,40,692,4483,PPL
Paithra,17.96316,78.09311,40,535,4468,PPL
Palarancha,17.94477,78.03294,40,535,4469,PPL
Pallipahad,17.94231,78.76264,40,692,4463,PPL
Pallipahad,17.60335,78.8163,40,697,4614,PPL
Pamkunta,17.7618,78.90692,40,697,4615,PPL
Pampalli,17.89472,78.23,40,535,4480,PPL
Parotapur,17.54491,78.71722,40,697,4613,PPL
Parpalli,17.75139,78.95028,40,697,4615,PPL
Pedda Bashirabad,17.51331,78.48096,40,700,4521,PPL
Peddagutta,17.75351,78.37973,40,535,4487,PPL
Peddapur,17.61406,78.0272,40,691,4490,PPL
Penchkaipahad,17.51046,78.94213,40,697,4628,PPL
Pilutla,17.81017,78.32548,40,535,4487,PPL
Pirlapalli,17.89326,78.65829,40,692,6283,PPL
Pogilonpalli,17.99083,78.01333,40,535,4469,PPL
Ponal,17.60503,78.63185,40,700,4520,PPL
Ponyala,17.75124,78.12468,40,691,4489,PPL
Posanipet,17.85461,78.07993,40,691,4479,PPL
Potampalli,17.91542,78.52139,40,535,7190,PPL
Potaram,17.60321,78.37279,40,691,4493,PPL
Potaram,17.66418,78.66982,40,700,6671,PPL
Potawaram,17.78951,78.43753,40,535,6273,PPL
Potgal Samal,17.80107,78.09289,40,691,4479,PPL
Potraddipalli,17.88113,78.92058,40,692,4672,PPL
Qaneshgudam,17.80319,78.75053,40,692,6282,PPL
Raghunathpuram,17.67709,78.96234,40,697,4615,PPL
Raikanapalli,17.85337,78.14906,40,535,6274,PPL
Railapur,17.83176,78.22808,40,535,4480,PPL
Rainlaguda,17.62778,78.44333,40,700,4519,PPL
Rajampet,17.61833,78.07722,40,691,4492,PPL
Rajapet,17.7325,78.92111,40,697,4615,PPL
Rajpet,17.83528,78.26917,40,535,4480,PPL
Ramaguda,17.85942,78.739,40,692,4483,PPL
Ramaram,17.91478,78.58656,40,692,6283,PPL
Ramaram,17.5255,78.42156,40,700,6315,PPL
Ramayanpalli,17.94361,78.32372,40,535,4481,PPL
Ramayapalli,17.78183,78.47474,40,535,6273,PPL
Ramlingampalli,17.57869,78.6983,40,697,4613,PPL
